AROKATO,Nom,Etat2001,Dist2001,Longitude,Latitude,Stat_cap,Dist_Cap,StatusUR,StatusD,1961,1981,1991,2001,2011
ARR3714101,Auwoora,1,1,74.1852,34.563,0,0,R,R,6381,7507,8249,12747,15404
ARR3137106,Murum,1,6,75.2238,33.5777,0,0,R,R,10984,13904,15865,17237,18371
ARR1414113,Bhalwal,1,13,74.813,32.8445,0,0,U,CT,9103,13016,11686,37218,39229
ARR1415113,Bhalwal,1,13,74.813,32.8445,0,0,U,CT,7580,10985,11686,37218,39229
ARR1673202,Dharmsala,2,2,76.3192,32.2197,0,0,U,M,15650,21900,23225,26788,33555
ARR1459204,Shamshi,2,4,77.1322,31.9067,0,0,R,R,14514,23039,23785,33682,38046
ARR2351205,Sundarnagar,2,5,76.906,31.5358,0,0,U,M,9383,18765,20397,23986,24344
ARR4533206,Vellomcode,2,6,76.5237,31.686,0,0,U,CT,5593,14341,15256,17252,12715
ARR307727,Una,2,7,76.2677,31.4667,0,0,U,MCORP,5852,11041,12001,15900,18722
ARR4211208,Bilaspur,2,8,76.7612,31.3416,0,0,U,M,5567,10503,10609,13058,13654
ARR1722209,Baddi,2,9,76.8091,30.934,0,0,U,TP,11725,19103,19347,24632,32598
ARR5296,Dhindhora,2,9,77.1053,26.7913,0,0,R,R,3359,5694,5942,8516,10986
ARR1951210,Nahan,2,10,77.2917,30.5594,0,0,U,M,15629,20565,21878,26053,28899
ARR2261210,PaontaSahib,2,10,77.6215,30.4378,0,0,U,M,8052,12018,13207,19090,25183
ARR541531,Awankha,3,1,75.4282,32.1269,0,0,R,R,4272,6103,7338,9060,10736
ARR32231,Batala,3,1,75.2038,31.811,0,0,U,M,58380,87135,103367,147872,156400
ARR2389301,Dinanagar,3,1,75.4713,32.1344,0,0,U,M,6670,13078,16968,21502,23976
ARR3668301,FatehgarhChurian,3,1,74.9569,31.8637,0,0,U,M,4560,11106,13135,18344,15628
ARR2391301,Jugial,3,1,75.6528,32.3583,0,0,U,CT,14550,21517,23523,24006,23947
ARR250301,Pathankot,3,1,75.6525,32.2726,0,0,U,M,76769,124095,143995,209690,195306
ARR2421301,Qadian,3,1,75.3766,31.8233,0,0,U,M,9957,15804,20012,22001,23632
ARR555131,Tibber,3,1,75.379,31.9709,0,0,R,R,3755,7664,8317,8858,10497
ARR4881301,Tibri,3,1,75.4311,31.9851,0,0,U,CT,821,1416,1718,10450,11845
ARR4965302,3STR,3,2,75.2951,31.5843,0,0,U,CT,4153,8653,8740,10925,11667
ARR2735302,Ajnala,3,2,74.7591,31.8459,0,0,U,TP,8121,12890,13427,18589,21107
ARR2830302,Bhikhiwind,3,2,74.6915,31.3458,0,0,U,CT,6122,9566,11958,10293,20526
ARR544132,Bundala,3,2,74.98,31.5316,0,0,R,R,5546,7297,8669,9994,10683
ARR5009,Chohla_Sahib,3,2,74.9605,31.2513,0,0,R,R,3119,6365,7072,7224,11561
ARR1927302,Jandiala,3,2,75.0288,31.562,0,0,U,M,12415,16335,19293,23834,29232
ARR392032,JhabalKalan,3,2,74.7935,31.4823,0,0,R,R,2749,4999,5262,9453,14564
ARR525932,KhadurSahib,3,2,75.0978,31.4241,0,0,R,R,3427,6994,7746,9683,11054
ARR4274302,Khemkaran,3,2,74.5612,31.1445,0,0,U,TP,6130,8757,9552,11940,13446
ARR3938302,Majitha,3,2,74.9571,31.757,0,0,U,M,2357,8729,10713,12992,14503
ARR5462302,Malkhed,3,2,75.1321,31.3649,0,0,R,R,5181,9594,9994,11180,10648
ARR1353302,Patti,3,2,74.8568,31.2821,0,0,U,M,17693,27220,27776,34444,40976
ARR3937302,Rayya,3,2,75.2317,31.5403,0,0,U,TP,4793,7049,9122,12631,14506
ARR432432,SarhaliKalan,3,2,74.9245,31.2784,0,0,R,R,5411,8454,8806,9858,13295
ARR5601,Takali,3,2,74.6924,16.8249,0,0,R,R,2821,4864,6270,8439,10418
ARR702302,Tarn-Taran,3,2,74.9285,31.4515,0,0,U,M,23595,42307,54372,63688,76857
ARR580733,Begowal,3,3,75.5214,31.6111,0,0,U,TP,3439,6744,7693,9616,10116
ARR3680303,Hussainpur,3,3,75.2959,31.3119,0,0,U,CT,5871,10675,12270,15337,15575
ARR387303,Phagwara,3,3,75.7722,31.227,0,0,U,M,55422,84296,101281,121347,132228
ARR340833,Sultanpur,3,3,75.1965,31.2148,0,0,R,R,7407,12143,13722,15571,16877
ARR580234,Bilga,3,4,75.6546,31.0501,0,0,R,R,6070,9060,8026,9821,10125
ARR2937304,Goraya,3,4,75.7726,31.1229,0,0,U,TP,7230,11163,13497,18149,19656
ARR2204304,Kartarpur,3,4,75.4982,31.4396,0,0,U,M,15830,20038,21093,25157,25662
ARR3923304,Nurmahal,3,4,75.5927,31.0953,0,0,U,M,6289,9676,11149,12632,14560
ARR2054304,Phillaur,3,4,75.7895,31.0179,0,0,U,M,9035,19305,22698,24473,27557
ARR3945304,Shahkot,3,4,75.3372,31.0827,0,0,U,TP,7180,9836,10246,12607,14488
ARR3388305,Garhshankar,3,5,76.141,31.2156,0,0,U,M,6851,9515,11761,15148,16955
ARR5435305,Gopalasamudram,3,5,76.0383,31.3621,0,0,U,TP,3457,5859,7039,10018,10694
ARR5642,Med,3,5,76.1466,27.354,0,0,R,R,4074,5738,6040,8218,10379
ARR2210305,Sainthal,3,5,75.6528,31.8144,0,0,U,TP,7569,13193,15701,20114,25637
ARR296235,Talwara,3,5,75.8791,31.943,0,0,U,CT,10732,16510,17379,22574,19485
ARR3682,Tosham,3,5,75.917,28.8697,0,0,U,M,4961,7632,8387,11272,15559
ARR2454305,UrmarTanda,3,5,75.6318,31.6655,0,0,U,M,12535,17655,18786,22048,23419
ARR2670306,Balachaur,3,6,76.3024,31.0621,0,0,U,TP,9342,13944,14525,18156,21631
ARR2770306,Banga,3,6,75.9961,31.1851,0,0,U,M,6340,13490,17721,18809,20906
ARR1064306,Nawanshahr,3,6,76.1196,31.1278,0,0,U,M,22980,31389,35478,38479,52314
ARR3654306,Rahon,3,6,76.1174,31.0534,0,0,U,M,5896,8671,10771,12134,15676
ARR3526307,AnandpurSahib,3,7,76.4997,31.2378,0,0,U,M,5657,8571,10674,13889,16282
ARR4510307,Karoran,3,7,76.7547,30.9896,0,0,R,CT,11968,22045,24316,29804,12779
ARR1806307,Kurali,3,7,76.582,30.8286,0,0,U,M,7329,12637,17592,23047,31060
ARR2117307,Morinda,3,7,76.4978,30.7881,0,0,U,M,8234,15455,19825,25215,26692
ARR733307,Nangal,3,7,76.3743,31.3916,0,0,U,M,30315,44633,52042,68721,73163
ARR5061307,Nehon,3,7,76.5717,31.0335,0,0,U,CT,1908,7317,8130,10162,11483
ARR286138,BassiPathana,3,8,76.4,30.6894,0,0,U,M,11670,16672,18138,19058,20288
ARR942308,SirhindFatehgarhSahib,3,8,76.385,30.6261,0,0,U,M,16913,30202,30818,49825,58097
ARR3316309,Dakha,3,9,75.6962,30.8985,0,0,R,CT,4428,7698,8809,11037,17387
ARR2234309,Doraha,3,9,76.0368,30.798,0,0,U,M,4716,7606,9589,18986,25424
ARR4943309,Halwara,3,9,75.6435,30.7257,0,0,U,TP,2722,4150,4716,11024,11729
ARR668309,Jagraon,3,9,75.474,30.7974,0,0,U,M,21691,47304,55970,71044,80357
ARR5249309,Kaunke,3,9,75.4153,30.7643,0,0,R,R,5742,7656,8322,11096,11081
ARR191309,Khanna,3,9,76.2262,30.7029,0,0,U,M,76387,115961,141862,199066,250333
ARR2285309,Machhiwara,3,9,76.2016,30.9154,0,0,U,TP,6498,12741,13554,18364,24916
ARR3516309,MullanpurDakha,3,9,75.6722,30.8428,0,0,U,TP,6330,8115,10138,13949,16356
ARR1800309,Raikot,3,9,75.6014,30.6478,0,0,U,M,7019,18729,22994,26977,31116
ARR2255310,BhaghaPurana,3,10,75.0978,30.6848,0,0,U,TP,9145,14289,17287,21596,25206
ARR5535310,Buttar,3,10,75.2757,30.7241,0,0,R,R,5390,8693,9151,10053,10519
ARR5536310,Buttar,3,10,75.2757,30.7241,0,0,R,R,5390,8693,9151,10053,10519
ARR3022310,Dharamkot,3,10,75.2325,30.9422,0,0,U,M,5475,9125,11981,15399,19057
ARR4504310,KotIseKhan,3,10,75.1373,30.9451,0,0,U,CT,5563,7727,8399,10499,12800
ARR5059310,KurchiBinodbati,3,10,75.2906,30.6806,0,0,U,NP,3962,8314,9271,10191,11487
ARR2473310,NihalSinghwala,3,10,75.2814,30.5918,0,0,R,R,8711,15478,17331,20342,23230
ARR5192310,Smalsar,3,10,74.9974,30.6363,0,0,R,R,4185,8205,8823,9971,11189
ARR301311,Abohar,3,11,74.2006,30.1413,0,0,U,M,61146,91747,113990,137780,164500
ARR705311,Fazilka,3,11,74.0263,30.402,0,0,U,M,23516,43548,58028,67427,76492
ARR5512,Gangrar,3,11,74.6093,25.0514,0,0,R,R,3495,5923,7192,8902,10573
ARR1150311,GuruharSahai,3,11,74.408,30.702,0,0,R,R,15335,28284,31073,38838,48494
ARR940311,Jalalabad,3,11,74.2568,30.6066,0,0,U,MCORP,14040,25836,32898,46296,58290
ARR3725311,KerwanDih,3,11,74.9892,31.1031,0,0,U,NP,4324,8045,9296,12175,15334
ARR3538311,Mallanwala,3,11,74.819,31.0522,0,0,U,TP,4680,7932,10699,12597,16183
ARR1492311,Zira,3,11,74.9905,30.9701,0,0,U,M,14240,20638,23722,31783,37498
ARR1026312,Giddarbaha,3,12,74.6604,30.2027,0,0,U,M,27476,32186,36082,43966,53760
ARR4247312,Killianwali,3,12,74.669,29.9695,0,0,R,R,5011,5966,7054,10360,13547
ARR601312,Malout,3,12,74.4957,30.1952,0,0,U,M,26009,60487,62812,78361,90138
ARR1320313,Jaitu,3,13,74.8918,30.4473,0,0,U,M,15803,27140,30467,35621,41977
ARR494313,KotKapura,3,13,74.825,30.5836,0,0,U,M,37033,58961,76211,94240,107788
ARR146314,Bathinda,3,14,74.9415,30.208,0,0,U,M,64139,150688,188231,252659,322750
ARR3949314,Bhagta,3,14,75.1006,30.4872,0,0,R,R,4017,6926,8772,11809,14467
ARR3835314,BhaiRupa,3,14,75.2203,30.4319,0,0,R,R,3501,8977,10008,13294,14841
ARR2529314,BhuchoMandi,3,14,75.0993,30.2121,0,0,U,M,8283,12534,15899,19595,22815
ARR2611314,Goniana,3,14,74.9126,30.3162,0,0,U,M,8981,13023,15623,18896,22119
ARR5844314,KotFatta,3,14,75.0845,30.1126,0,0,U,M,4921,6860,7880,8959,10048
ARR3504314,LehraMohabat,3,14,75.1664,30.2416,0,0,R,R,6107,9140,9966,14300,16390
ARR1757314,Maur,3,14,75.2408,30.0697,0,0,U,M,15082,18853,25180,27543,31849
ARR860314,RampuraPhul,3,14,75.235,30.2722,0,0,U,M,29377,39297,43600,54099,62958
ARR2820314,TalwandiSabo,3,14,75.0819,29.9828,0,0,R,R,7396,12751,12880,16754,20589
ARR3309315,Bareta,3,15,75.6925,29.8619,0,0,U,M,7215,9494,11537,14886,17432
ARR4746315,Boha,3,15,75.5238,29.8351,0,0,R,R,4607,6980,8258,10589,12170
ARR4296315,Budhlada,3,15,75.5141,29.9325,0,0,R,R,6704,9442,10263,12074,13389
ARR623315,Mansa,3,15,75.3996,29.9926,0,0,U,MCORP,32017,45969,58333,76673,87295
ARR2996315,Sardulgarh,3,15,75.2358,29.6945,0,0,U,TP,8834,12269,13052,16315,19219
ARR3005315,Shehera,3,15,75.5345,30.0607,0,0,U,NP,6778,10932,11883,15080,19175
ARR4488,Banasthali_,3,16,75.8635,26.4067,0,0,U,CT,3116,4452,5008,6677,12835
ARR442316,Barnala,3,16,75.5438,30.3708,0,0,U,M,42679,61853,75430,96624,116454
ARR4985316,Cheema,3,16,75.6857,30.0939,0,0,U,TP,4087,6287,7396,9245,11615
ARR2903316,Dhanaula,3,16,75.5755,30.2827,0,0,U,M,11525,13885,15967,18485,19920
ARR786316,Dhuri,3,16,75.8608,30.3704,0,0,U,M,29309,36450,48139,61282,68685
ARR2560316,Lehragaga,3,16,75.8079,29.9378,0,0,U,M,4582,11455,15555,19336,22588
ARR2399316,Longowal,3,16,75.6792,30.1951,0,0,U,M,7017,12530,16254,20239,23851
ARR376316,Malerkotla,3,16,75.8802,30.5298,0,0,U,M,18412,65756,88600,107009,135330
ARR3164316,Mandvi,3,16,75.9882,29.8088,0,0,R,R,3446,4307,4534,17453,18214
ARR4005316,Markacho,3,16,76.1119,29.8386,0,0,U,NP,4398,8145,8574,10960,14298
ARR3120316,Mukandgarh,3,16,76.0424,30.266,0,0,U,M,7915,13415,15073,17792,18469
ARR5650,Pachar,3,16,75.3702,27.2457,0,0,R,R,3622,6139,6201,8469,10369
ARR3252316,Patdi,3,16,75.3298,30.4756,0,0,U,M,8907,12908,13446,16808,17725
ARR3449316,Piriyapatna,3,16,75.8899,29.8191,0,0,U,TP,6023,10039,12008,14924,16685
ARR3866316,Sehna,3,16,75.3802,30.4296,0,0,R,R,4776,7128,9257,13797,14762
ARR782316,Sunam,3,16,75.8005,30.1288,0,0,U,M,21658,35505,43909,56251,69069
ARR2471316,Tapa,3,16,75.3701,30.299,0,0,U,M,8205,11088,14161,18917,23248
ARR5501,Watika,3,16,75.8008,26.7121,0,0,R,R,2484,6210,6537,8292,10590
ARR2631317,Bhankharpur,3,17,76.8347,30.6059,0,0,U,CT,7513,11537,13731,17832,21952
ARR2700317,Lalru,3,17,76.8021,30.4852,0,0,U,CT,5481,8433,9949,15824,21394
ARR637317,Nabha,3,17,76.1504,30.3755,0,0,U,M,27534,50863,60107,72597,85129
ARR1817317,Patran,3,17,76.0521,29.9545,0,0,U,TP,9392,15214,16148,24616,30960
ARR446317,Rajpura,3,17,76.5963,30.4856,0,0,U,M,38815,65347,79059,95604,115308
ARR911317,Samana,3,17,76.1994,30.1524,0,0,U,M,15389,34655,40106,50769,59897
ARR2723317,Sanaur,3,17,76.4573,30.3001,0,0,U,M,8861,13031,16490,17935,21201
ARR4514317,Shutrana,3,17,76.1181,29.909,0,0,R,R,4666,8044,9321,10949,12768
ARR3440502,Joshimath,5,2,79.5583,30.5568,0,0,U,M,6727,11028,11488,13204,16709
ARR2119502,Taoru,5,2,79.32,30.4112,0,0,U,M,8296,13592,14175,19833,26664
ARR762505,AnfieldGrant,5,5,77.7764,30.4792,0,0,R,R,21007,31574,33477,55294,70906
ARR2782505,EastHopetown,5,5,77.9008,30.3153,0,0,R,R,2950,10537,11210,15072,20840
ARR3276505,Jauligrant,5,5,78.1466,30.1859,0,0,R,R,4843,7530,7875,10961,17608
ARR1660505,MarkhamGrant,5,5,78.1148,30.1565,0,0,R,R,12543,19594,21203,27237,33818
ARR1864505,Mussoorie,5,5,78.0779,30.4568,0,0,U,M,16225,24584,26722,26075,30118
ARR5406,Pandalkudi,5,5,78.0806,9.3609,0,0,R,R,4669,7654,8078,9323,10759
ARR354955,Pratitnagar,5,5,78.2193,30.0308,0,0,U,CT,3967,7234,7915,9257,16122
ARR5307,PunjaiThottakurichi,5,5,78.0417,11.0567,0,0,U,TP,2004,3037,3301,9649,10969
ARR282505,Rishikesh,5,5,78.3001,30.1042,0,0,U,M,67240,108668,119860,125836,172932
ARR5118,Sirsod,5,5,78.044,25.4027,0,0,R,R,1671,2570,2677,5891,11334
ARR743506,Kotdwara,5,6,78.5162,29.7406,0,0,U,M,29934,41081,43098,56674,72327
ARR3049509,Ranikhet,5,9,79.4322,29.6436,0,0,U,CB,9834,15862,16874,19055,18886
ARR1324510,Tanakpur,5,10,80.1153,29.0734,0,0,U,M,15398,26804,28369,36875,41906
ARR3558511,Bhimtal,5,11,79.5634,29.3443,0,0,U,TP,6989,9505,10211,13453,16064
ARR231511,Haldwani-cum-Kathgodam,5,11,79.5298,29.2191,0,0,U,M,82380,125745,129196,185210,206057
ARR1404512,Bazpur,5,12,79.1545,29.1604,0,0,U,M,12296,22504,23092,32045,39395
ARR2024512,Gadarpur,5,12,79.2475,29.0477,0,0,U,M,9340,13052,13750,19884,28047
ARR5821,Kadalady,5,12,78.9636,12.406,0,0,U,CT,5020,6693,7728,8790,10093
ARR335512,Kashipur,5,12,78.963,29.2106,0,0,U,M,43536,66348,75316,105876,151691
ARR1237512,Khatima,5,12,79.9706,28.9247,0,0,U,M,12184,17333,20518,34666,45079
ARR805512,Kichha,5,12,79.5164,28.9107,0,0,U,M,18067,30038,31807,46130,67163
ARR4592512,MahuaKheraganj,5,12,78.9449,29.1356,0,0,U,TP,3078,6548,6614,8858,12584
ARR2596512,Nagla,5,12,79.4879,29.0273,0,0,U,CT,12241,20748,22072,22947,22258
ARR307512,Rudrapur,5,12,79.3966,28.9757,0,0,U,M,41815,62743,74437,107171,163560
ARR5111,Takalghat,5,12,78.9469,20.9149,0,0,U,CT,1791,3655,4153,8771,11363
ARR2819512,UmruKhurd,5,12,79.9688,28.9686,0,0,U,CT,3206,4333,5416,12571,20593
ARR2857513,BhagtanpurAbidpurUrfIbrahim,5,13,78.0681,29.8992,0,0,R,R,6986,10585,11142,15177,20306
ARR129513,Hardwar,5,13,78.1072,29.9285,0,0,U,M,157579,215079,258957,269838,374189
ARR5193513,Jhabrera,5,13,77.7767,29.8095,0,0,U,TP,5153,6870,7633,9384,11186
ARR2657513,Laksar,5,13,78.0181,29.7539,0,0,U,TP,9898,14997,15622,18242,21760
ARR1211513,Landhaura,5,13,77.9328,29.8045,0,0,U,TP,13282,19603,24343,34671,46214
ARR1046513,Manglaur,5,13,77.8779,29.7919,0,0,U,M,20445,32453,34161,42584,52971
ARR3231513,PadarthaUrfDhanpura,5,13,78.1105,29.8482,0,0,R,R,3362,10274,10515,14029,17835
ARR3486513,PiranKaliyar,5,13,77.9393,29.9212,0,0,U,CT,3986,6411,6673,10542,16495
ARR201513,Roorkee,5,13,77.8854,29.8767,0,0,U,M,76865,109478,119589,180684,237503
ARR2606513,SultanpurAdampur,5,13,78.1085,29.7575,0,0,R,R,7543,10681,11922,16216,22169
ARR630601,Kalka,6,1,76.9395,30.8356,0,0,U,MCORP,22729,33970,36207,71140,86285
ARR2682602,Barara,6,2,77.0372,30.2155,0,0,R,CT,3610,12893,13572,18219,21545
ARR4752602,Shahzadpur,6,2,77.0326,30.4466,0,0,R,R,5744,9186,9766,11011,12162
ARR494063,Bilaspur,6,3,77.3028,30.3036,0,0,U,CT,4592,6560,7130,9621,11733
ARR4093603,Buria,6,3,77.3574,30.1586,0,0,U,CT,6778,8795,9506,11927,13954
ARR552763,Chhachhrauli,6,3,77.3588,30.2454,0,0,U,CT,4209,6377,7330,9710,10533
ARR528963,Farakhpur,6,3,77.2059,30.1322,0,0,U,CT,2868,5412,5579,8740,10995
ARR5658,Jurhara,6,3,77.2074,27.7817,0,0,R,R,3674,5033,6476,8095,10361
ARR3887603,Sadaura,6,3,77.2197,30.3862,0,0,U,M,6126,11345,11818,13176,14690
ARR5557,Therku_Kadayam,6,3,77.3602,8.8074,0,0,U,CT,3370,6127,7841,9225,10489
ARR115603,Yamunanagar,6,3,77.2819,30.1351,0,0,U,M,190522,261972,272753,352101,427380
ARR5806,Gurha_Chandraji,6,4,76.6702,26.7839,0,0,R,R,5070,6338,6770,8293,10119
ARR4184604,Ismailabad,6,4,76.6691,30.117,0,0,U,CT,7429,8844,9024,12236,13726
ARR1216604,Pehowa,6,4,76.5827,29.981,0,0,U,M,16500,24386,31030,39221,46022
ARR1218604,Shahbad,6,4,76.8705,30.1684,0,0,U,M,12254,29221,33540,39745,45952
ARR2272604,Sohagpur,6,4,77.047,29.9941,0,0,U,TP,11079,17869,18614,22339,25040
ARR306604,Thanesar,6,4,76.8373,29.9685,0,0,U,M,43544,83309,86720,128986,163615
ARR4925605,Batta,6,5,76.324,29.7116,0,0,R,R,5024,7281,9216,10704,11755
ARR4926605,Batta,6,5,76.324,29.7116,0,0,R,R,5024,7281,9216,10704,11755
ARR5702,Elanad,6,5,76.4,10.5761,0,0,R,R,5324,8066,9209,9892,10284
ARR3084605,Kalayat,6,5,76.2545,29.6771,0,0,U,M,9144,12357,12872,17051,18660
ARR4063605,Keorak,6,5,76.4756,29.8677,0,0,R,R,6767,9807,11675,14429,14051
ARR546765,Pabnawa,6,5,76.664,29.8899,0,0,R,R,5221,8032,8196,9425,10644
ARR5468HAR1,Pabnawa,6,5,76.664,29.8899,0,0,R,R,5221,8032,8196,9425,10644
ARR527565,Pharal,6,5,76.5846,29.8344,0,0,R,R,3569,7594,8345,9584,11030
ARR1679605,Pundri,6,5,76.5577,29.7613,0,0,U,M,17446,23692,24559,29231,33484
ARR3304605,Rajaund,6,5,76.4847,29.5773,0,0,R,R,7396,12326,12975,15335,17434
ARR239465,Siwan,6,5,76.3548,29.8868,0,0,R,R,6416,15275,16250,20214,23882
ARR4662605,Thummalamenta,6,5,76.2691,29.6216,0,0,R,CT,3076,5593,6933,10385,12373
ARR2087606,Assandh,6,6,76.6049,29.5198,0,0,U,M,10979,15912,16749,22707,27125
ARR1476606,Gharaunda,6,6,76.9701,29.5364,0,0,U,M,11229,19032,21147,30172,37816
ARR3929606,Gondar,6,6,76.7447,29.6545,0,0,R,R,7699,12029,13365,12367,14542
ARR3294606,Indri,6,6,77.0581,29.8789,0,0,U,M,6061,11020,11131,14511,17487
ARR4084606,Jundla,6,6,76.8713,29.6499,0,0,R,R,7040,9644,10483,12059,13982
ARR578866,Kachhwa,6,6,76.8865,29.728,0,0,R,R,4539,6775,7612,9145,10141
ARR504766,Munak,6,6,76.8489,29.5185,0,0,R,R,3049,4620,5250,9719,11507
ARR2913606,Muragachha,6,6,76.7182,29.5062,0,0,R,R,7011,13142,14355,17159,19867
ARR4320606,Sukhpar,6,6,77.0803,29.7161,0,0,R,CT,3728,7170,7879,10505,13303
ARR1820606,Taraori,6,6,76.9284,29.8004,0,0,U,M,10284,16626,18958,25560,30939
ARR4996607,Asankhurd,6,7,76.8666,29.3948,0,0,U,CT,3907,7461,8238,10264,11589
ARR5692,Baroda_Meo,6,7,76.8697,27.4848,0,0,R,R,1603,2812,2960,7863,10296
ARR4907607,Chulkana,6,7,76.9874,29.2071,0,0,R,R,6239,8319,9243,10279,11793
ARR3985607,Madlauda,6,7,76.8057,29.4021,0,0,R,R,5206,6941,7888,11282,14356
ARR1392607,Samalkha,6,7,77.0088,29.2374,0,0,U,M,10369,17281,18384,29866,39710
ARR1583608,Ganaur,6,8,77.0202,29.1342,0,0,U,M,4752,7543,20952,29006,35603
ARR735608,Gohana,6,8,76.7022,29.1377,0,0,U,M,23219,35014,37740,55441,73030
ARR4608608,KhanpurKalan,6,8,76.7905,29.161,0,0,R,R,3822,7494,7806,11065,12544
ARR227168,Kharkhoda,6,8,76.9097,28.8775,0,0,U,MCORP,6944,12625,13151,18763,25051
ARR3434608,MorthalKhas,6,8,77.0902,29.0395,0,0,R,R,5152,9541,11094,15646,16722
ARR160608,Sonipat,6,8,77.0171,28.9929,0,0,U,M,89275,144994,154454,242001,289729
ARR3104609,DanodaKalan,6,9,76.0003,29.5239,0,0,R,R,7515,12327,13311,16360,18539
ARR5800,Deulgaon_Mahi,6,9,76.177,20.0878,0,0,R,R,3161,5358,5824,8135,10127
ARR3758609,Ghasera,6,9,76.0188,29.6974,0,0,R,R,4208,8954,9526,11207,15147
ARR3068609,Julana,6,9,76.4007,29.1231,0,0,U,M,6659,9939,11424,13635,18755
ARR4024609,Muana,6,9,76.5671,29.4393,0,0,R,R,8766,11096,12061,12931,14205
ARR873609,Narwana,6,9,76.1167,29.5946,0,0,U,M,8693,36221,38533,50435,62090
ARR1428609,PaithanKawai,6,9,76.6682,29.4057,0,0,U,MCORP,13017,20419,23128,27541,38829
ARR4963609,Palukur,6,9,76.1741,29.7781,0,0,R,R,5214,8276,9179,10404,11674
ARR3413609,Uchana,6,9,76.1808,29.4695,0,0,U,M,6571,9807,10216,14111,16815
ARR3008610,BhattuKalan,6,10,75.342,29.3839,0,0,R,R,9201,11501,12923,15204,19114
ARR3733610,Jakhalmandi,6,10,75.8251,29.8042,0,0,U,CT,6189,11011,11407,13728,15281
ARR2156610,Nellimarla,6,10,75.7053,29.5341,0,0,R,CT,11496,17959,23089,24919,26259
ARR1372610,Ratia,6,10,75.5775,29.6881,0,0,U,M,12375,23323,24510,31904,40395
ARR847610,Tohana,6,10,75.9017,29.7092,0,0,U,M,18322,29083,34215,51519,63871
ARR1535611,Ellenabad,6,11,74.665,29.4532,0,0,U,M,15939,20973,22312,32795,36623
ARR2612611,Kalanwali,6,11,74.9775,29.8348,0,0,U,M,14483,19056,19850,25163,22095
ARR1049611,MandiDabwali,6,11,74.7058,29.966,0,0,U,M,19007,32215,36197,53811,52873
ARR4814611,Rori,6,11,75.2021,29.7432,0,0,R,R,6419,8024,8446,9936,11997
ARR262611,Sirsa,6,11,75.0303,29.5321,0,0,U,MCORP,65422,106941,116098,164567,187120
ARR3715611,TalwaraKhurd-1,6,11,74.634,29.4949,0,0,R,R,8541,10591,11757,14078,15400
ARR480612,Hansi,6,12,75.9697,29.0941,0,0,U,M,43083,63582,73650,92214,110119
ARR4776612,Midhakur,6,12,75.9278,29.5431,0,0,R,R,2640,6769,8387,10030,12102
ARR3347612,Narnaund,6,12,76.1405,29.2206,0,0,U,M,8899,11709,12197,15116,17242
ARR2602612,Nilakkottai,6,12,75.4768,29.2825,0,0,U,TP,8940,11920,14770,19615,22197
ARR3073612,Uklana,6,12,75.8297,29.5299,0,0,R,R,7246,13210,14115,16606,18729
ARR2364612,Uklanamandi,6,12,75.8781,29.5105,0,0,U,CT,11173,16867,17435,21154,24238
ARR4640613,Baliali,6,13,76.0158,28.8933,0,0,R,R,5408,9833,10243,10643,12440
ARR3991613,Bapora,6,13,76.0674,28.8182,0,0,R,R,3243,9008,9383,12861,14332
ARR4888613,Barwa,6,13,75.6052,28.9632,0,0,R,R,5353,7234,7863,9829,11830
ARR5214,Baskhoh,6,13,76.1524,26.8312,0,0,U,CT,5103,6714,7067,8186,11150
ARR3428613,BondKalan,6,13,76.3411,28.7788,0,0,R,R,7403,10698,11248,14816,16759
ARR4437613,Chang,6,13,76.2425,28.8814,0,0,R,R,6241,8105,9535,11817,12979
ARR973613,CharkhiDadri,6,13,76.27,28.5932,0,0,U,M,19497,29995,32253,44895,56337
ARR4623613,Devsar,6,13,76.0875,28.7615,0,0,R,R,1582,5651,6349,10780,12488
ARR4508613,Faridnagar,6,13,75.917,28.8697,0,0,U,TP,5536,10065,10940,11272,12785
ARR2806613,Jafarabad,6,13,76.0312,28.9493,0,0,U,TP,7805,12362,14682,17424,20678
ARR5081613,JhojhuKalan,6,13,76.1519,28.5209,0,0,R,R,4857,8203,8756,10301,11424
ARR3254613,KharakKalan,6,13,76.3058,28.8306,0,0,R,R,7179,12924,14243,15825,17718
ARR3004613,Maghar,6,13,75.6131,28.9103,0,0,U,TP,7195,10134,12985,15850,19181
ARR3296613,Nakhatrana,6,13,76.3298,28.8709,0,0,R,R,5412,8457,10314,12534,17478
ARR4913613,Rajpur,6,13,76.0496,28.7936,0,0,R,R,2475,3344,4115,10102,11780
ARR5426613,Tigrana,6,13,76.1387,28.8633,0,0,R,R,3344,8575,8750,9869,10712
ARR3957614,ChengmariTeaGarden,6,14,76.33,28.9301,0,0,R,R,4393,10714,11398,12857,14446
ARR3698614,Deuli,6,14,76.7378,28.7935,0,0,R,CT,5796,10406,10798,13762,15473
ARR2461614,Kalanaur,6,14,76.3951,28.8275,0,0,U,M,4982,14234,14524,16853,23319
ARR4219614,Kalanaur,6,14,76.3951,28.8275,0,0,R,TP,8276,12540,13062,12931,13642
ARR4031614,Kardhana,6,14,76.4767,28.9102,0,0,R,R,4263,6558,7378,10231,14187
ARR2827614,KheriSampla,6,14,76.7687,28.7749,0,0,U,M,8027,13459,14225,16735,20563
ARR4074614,MadinaKaursan,6,14,76.4351,28.9427,0,0,R,R,6307,10430,11043,12992,14015
ARR2414614,Maham,6,14,76.2955,28.9673,0,0,U,M,9448,16576,17911,21072,23695
ARR5505615,AsodaTodran,6,15,76.8719,28.7503,0,0,R,R,4588,7868,8779,9918,10581
ARR5506HAR1,AsodaTodran,6,15,76.8719,28.7503,0,0,R,R,4588,7868,8779,9918,10581
ARR4557615,Badli,6,15,76.8099,28.5725,0,0,R,R,7056,10080,11455,13477,12670
ARR3592615,Beri,6,15,76.5784,28.7021,0,0,R,MCORP,9889,13928,14508,16162,15934
ARR5617615,Bupania,6,15,76.8258,28.6353,0,0,R,R,3047,6429,8572,10085,10400
ARR4426615,Chhara,6,15,76.7177,28.6965,0,0,R,R,6464,11144,11257,13244,12989
ARR3317615,Dighal,6,15,76.6329,28.766,0,0,R,R,7951,12563,13930,16388,17385
ARR5831,Kothri_Kalan,6,15,76.8298,23.0743,0,0,R,R,3260,5258,6739,8238,10070
ARR1173615,Lalsot,6,15,76.6586,28.6076,0,0,U,M,16255,26645,28972,39002,47705
ARR5707,Naduhatty,6,15,76.811,11.4111,0,0,R,R,5933,7807,8132,9567,10278
ARR4747615,Ponnampatti,6,15,76.8188,28.7078,0,0,R,TP,4141,9002,9377,10660,12167
ARR4425616,Kanina,6,16,76.3082,28.33,0,0,U,M,4412,8171,8601,10195,12989
ARR581616,Narnaul,6,16,76.105,28.0448,0,0,U,M,32025,50813,64751,77105,93755
ARR3426617,Bawal,6,17,76.5813,28.0717,0,0,U,M,6368,8379,9010,12144,16776
ARR4636617,Dahina,6,17,76.3847,28.2964,0,0,R,R,3418,9236,9724,11440,12451
ARR3038618,BahoraKalan,6,18,76.835,28.3012,0,0,R,R,5729,11233,11824,13911,18961
ARR4520618,DhamtanSahib,6,18,77.0691,28.1318,0,0,R,R,4976,9214,9598,11207,12750
ARR4258618,Farrukhnagar,6,18,76.8231,28.4478,0,0,U,M,4737,7402,8046,9521,13513
ARR2310618,FerozepurJhirka,6,18,76.9442,27.7883,0,0,U,M,5400,10799,12413,17755,24750
ARR4725618,Malab,6,18,77.013,28.038,0,0,R,R,3398,4357,5008,9814,12214
ARR2769618,Nuh,6,18,77.0028,28.1028,0,0,U,M,4960,9315,9782,14200,20916
ARR2844618,Pataudi,6,18,76.7791,28.3257,0,0,U,M,7308,10150,11278,16085,20418
ARR2313618,Punahana,6,18,77.204,27.8643,0,0,U,M,6282,8158,8679,13179,24734
ARR2886618,Saraipali,6,18,76.7523,28.3514,0,0,U,TP,7963,13730,13869,17081,20043
ARR2908618,Singar,6,18,77.2513,27.8684,0,0,R,R,8119,12118,12756,15007,19885
ARR1539618,Sohna,6,18,77.0646,28.2479,0,0,U,M,10299,14713,16348,27570,36552
ARR5819,Alawalpur,6,19,77.3755,28.1751,0,0,R,R,4984,5795,6818,8021,10093
ARR5012619,Banchari,6,19,77.3504,27.9346,0,0,R,R,5662,8088,8253,9709,11555
ARR5576619,Chhainsa,6,19,77.4648,28.2605,0,0,R,R,2086,6320,6583,7745,10454
ARR5320619,Deeghot,6,19,77.3753,28.0373,0,0,R,R,4785,7595,7911,9307,10954
ARR3227619,Dhoj,6,19,77.1954,28.3407,0,0,R,R,6179,9733,10671,12554,17854
ARR5005619,Hodal,6,19,77.3678,27.8919,0,0,U,M,4080,6916,8136,9572,11568
ARR3503,Kadampadi,6,19,77.1637,11.0345,0,0,R,R,3062,9150,10100,10812,16398
ARR4266619,Kushak,6,19,77.4551,28.0425,0,0,R,R,5314,8856,9322,10967,13477
ARR5528619,Mohna,6,19,77.4444,28.2234,0,0,R,R,5984,7772,7851,9237,10533
ARR329619,Palwal,6,19,77.3253,28.1439,0,0,U,M,30076,68074,71484,115211,154321
ARR4526619,Rupraka,6,19,77.1584,28.0029,0,0,R,R,5148,7150,7857,9243,12743
ARR3710619,ShergarhBangar,6,19,77.2397,28.0437,0,0,U,MCORP,3360,8001,9668,10916,15429
ARR4787619,Sundhad,6,19,77.3212,27.9189,0,0,R,R,5854,7702,8853,10415,12048
ARR3264619,Utawar,6,19,77.1913,27.9767,0,0,R,R,6378,9664,9963,11721,17650
ARR3802701,DaryaPurKalan,7,1,77.0104,28.8139,0,0,U,CT,6203,10869,11419,12466,14968
ARR2693801,8LLG,8,1,74.0608,29.7757,0,0,U,CT,8127,15334,15489,18222,21437
ARR4962801,8PSD-B,8,1,72.8843,28.8447,0,0,R,R,7755,9232,9718,12147,11675
ARR5511,Bahiyel,8,1,72.8851,23.0729,0,0,R,R,4713,6121,6878,8663,10575
ARR5420,Bavdhan,8,1,73.889,17.9141,0,0,R,R,5275,7430,8736,10002,10726
ARR545381,Gajsinghpur,8,1,73.4391,29.6571,0,0,U,M,3549,6573,7884,9630,10665
ARR271181,Karanpur,8,1,73.4515,29.8414,0,0,U,M,5948,15252,18231,20694,21297
ARR4075801,Kesrisinghpur,8,1,73.6199,29.9473,0,0,U,M,5745,9738,11751,13155,14014
ARR3131801,Padampur,8,1,73.6311,29.7064,0,0,U,M,8265,10734,13368,16956,18420
ARR1983801,Pasan,8,1,73.2089,29.1921,0,0,U,M,14307,23454,26060,29565,28447
ARR1843801,Raisinghnagar,8,1,73.4453,29.5362,0,0,U,M,12403,18965,24872,30063,30553
ARR1844801,Raisinghnagar,8,1,73.4453,29.5362,0,0,U,M,12403,18965,24872,30063,30553
ARR2279801,Sadulshahar,8,1,74.1766,29.9062,0,0,U,M,8409,16817,17702,22326,24980
ARR4831801,Sathiala,8,1,73.0254,29.006,0,0,U,CT,4340,7741,8910,10925,11960
ARR765801,Suratgarh,8,1,73.9012,29.324,0,0,U,M,30162,45185,47581,60400,70582
ARR3756802,1DBL-A,8,2,74.1917,29.5521,0,0,R,R,6478,8305,10085,13447,15149
ARR3615802,1KNN,8,2,74.8949,29.3422,0,0,R,R,6850,10265,10864,14167,15838
ARR5014802,8GGR,8,2,74.5039,29.5566,0,0,R,R,3127,5685,7673,10230,11553
ARR1359802,Bhadra,8,2,75.1656,29.106,0,0,U,M,13280,24592,28912,35141,40662
ARR1117802,Nohar,8,2,74.7669,29.1855,0,0,U,M,17120,25176,32722,42309,49835
ARR1502802,Pilibanga,8,2,74.0797,29.4899,0,0,U,M,13704,24471,26140,33608,37288
ARR4515,Ras,8,2,74.1945,26.3059,0,0,R,R,3977,6741,7574,8419,12766
ARR1605802,Rawatsar,8,2,74.4047,29.2628,0,0,U,M,13671,20714,22126,28387,35102
ARR1536802,Sangaria,8,2,74.4639,29.795,0,0,U,M,16861,22481,25290,34537,36619
ARR4887803,Beriyawali,8,3,72.6094,28.7469,0,0,U,CT,9870,23500,24737,12344,11831
ARR500283,Chhatragarh,8,3,73.1253,28.6685,0,0,R,R,5398,7938,8356,7985,11574
ARR3117803,Deshnoke,8,3,73.3475,27.7969,0,0,U,M,6377,10995,13395,15658,18470
ARR3118803,Deshnoke,8,3,73.3475,27.7969,0,0,U,M,6377,10995,13395,15658,18470
ARR567383,Kaloo,8,3,73.8934,28.3822,0,0,R,R,4302,5893,7147,8927,10334
ARR2514803,Lunkaransar,8,3,73.749,28.4933,0,0,R,R,7963,13971,15876,20472,22931
ARR2520803,Napasar,8,3,73.5567,27.9631,0,0,R,R,8320,14858,15640,19550,22893
ARR75883,Nokha,8,3,73.4712,27.5576,0,0,U,M,21583,37212,41119,55424,71028
ARR1453804,Bidasar,8,4,74.3148,27.8334,0,0,U,M,9441,17814,23256,30107,38156
ARR292784,Chhapar,8,4,74.4389,27.818,0,0,U,M,8783,11711,15535,17909,19744
ARR1038804,Dungargarh,8,4,74.0094,28.0998,0,0,U,M,20935,29076,36463,45020,53294
ARR5048804,Parihara,8,4,74.5558,27.9294,0,0,R,R,4069,7139,8434,10069,11506
ARR2068804,Rajaldesar,8,4,74.471,28.0267,0,0,U,M,7009,15236,19538,22836,27419
ARR756804,Ratangarh,8,4,74.6193,28.0782,0,0,U,M,24285,43366,55079,63486,71124
ARR568804,Sardarshahar,8,4,74.4965,28.4429,0,0,U,M,21427,56388,67954,81394,95911
ARR526804,Sujangarh,8,4,74.4666,27.7028,0,0,U,M,33882,55544,70843,83846,101528
ARR1721804,Taranagar,8,4,75.037,28.6684,0,0,U,M,13120,15435,21477,27066,32640
ARR984,Adoor,8,5,75.225,12.5496,0,0,R,R,21391,44427,49699,55125,55898
ARR547785,Babai,8,5,75.7624,27.8878,0,0,U,CT,5996,7687,7844,9805,10620
ARR3425805,Baggar,8,5,75.4998,28.1889,0,0,U,M,9657,12591,13635,16807,16778
ARR2590805,Bhawanigarh,8,5,75.2239,27.9524,0,0,U,M,7981,12093,13900,17792,22320
ARR541885,Bhorki,8,5,75.4736,27.8683,0,0,R,R,5255,7843,7922,9903,10727
ARR2475805,Bissau,8,5,75.0759,28.2474,0,0,U,M,12241,16542,17413,21133,23227
ARR5159805,Chhapoli,8,5,75.5507,27.7394,0,0,R,R,4364,7934,8265,10845,11274
ARR5160805,Chhapoli,8,5,75.5507,27.7394,0,0,R,R,4364,7934,8265,10845,11274
ARR1271805,Chirawa,8,5,75.6507,28.2392,0,0,U,M,22941,26676,27787,37227,43953
ARR1370,Dhamnod_,8,5,75.4737,22.2184,0,0,U,TP,11157,17709,18839,26273,40434
ARR563885,Dundlod,8,5,75.2245,27.9029,0,0,R,R,4432,7035,8276,9553,10383
ARR3395805,Gothra,8,5,75.8189,28.0692,0,0,U,CT,14267,22292,23465,21820,16933
ARR3396805,Gothra,8,5,75.8189,28.0692,0,0,U,CT,14267,22292,23465,21820,16933
ARR3246805,GudhaGorji,8,5,75.5298,27.874,0,0,R,R,8411,11651,11987,14956,17769
ARR3575805,Hindoria,8,5,75.6143,28.1325,0,0,R,TP,7012,9876,12600,14429,16001
ARR572085,Islampur,8,5,75.5374,28.149,0,0,U,CT,5934,7064,7436,8738,10247
ARR5100,Khatoo,8,5,75.4036,27.3645,0,0,R,R,3919,6425,7440,8470,11374
ARR3339805,Khiror,8,5,75.2962,27.7477,0,0,R,R,7880,12007,12982,14745,17261
ARR4185805,Malsisar,8,5,75.2948,28.3556,0,0,U,CT,5524,9056,9952,11990,13719
ARR3899805,Mandrela,8,5,75.4325,28.3127,0,0,R,R,6254,9334,10257,12436,14634
ARR680805,Nawalgarh,8,5,75.2735,27.8527,0,0,U,M,27588,55376,61885,70079,78951
ARR1230805,Pilani,8,5,75.6078,28.3606,0,0,U,M,14709,29845,32205,40590,45385
ARR5102805,Singhana,8,5,75.836,28.0986,0,0,U,CT,7986,13091,13636,10681,11372
ARR2667805,Surajgarh,8,5,75.7349,28.3097,0,0,U,M,9930,15046,16534,18865,21666
ARR1658805,Udaipurwati,8,5,75.4761,27.7334,0,0,U,M,14637,24807,25986,31801,33863
ARR3496806,Bardod,8,6,76.3687,27.8962,0,0,R,R,8136,10299,11195,13957,16434
ARR1636806,Behror,8,6,76.2946,27.8917,0,0,U,M,10552,18643,19754,26963,34235
ARR316806,Bhiwadi,8,6,76.8404,28.2116,0,0,U,CT,23182,38911,43369,78705,157522
ARR5835,Chincholi_Raowadi,8,6,76.454,18.3146,0,0,R,R,1194,2843,3203,5678,10065
ARR2451806,KasbaBansur,8,6,76.354,27.6839,0,0,R,R,10139,14148,15106,17900,23432
ARR1446806,Khairthal,8,6,76.6397,27.7997,0,0,U,M,15535,22514,22741,32005,38298
ARR2305806,Kherli,8,6,77.0389,27.2008,0,0,U,M,9855,15397,17087,21514,24793
ARR503186,MalaKhera,8,6,76.6265,27.3875,0,0,R,R,2392,7249,7966,9502,11529
ARR1456806,Rajgarh,8,6,76.6243,27.2365,0,0,U,M,25825,44842,51441,34848,38097
ARR475886,Shahjahanpur,8,6,76.4488,27.9953,0,0,U,CT,5012,7094,8516,10731,12150
ARR2311806,Tijara,8,6,76.8542,27.9341,0,0,U,M,8925,14167,15399,19921,24747
ARR4633,Vaddu,8,6,76.6305,15.1869,0,0,U,CT,1249,2117,2557,5652,12453
ARR1256807,Bayana,8,7,77.2927,26.9064,0,0,U,M,16582,23435,30216,38383,44368
ARR2897807,Bhusawar,8,7,77.0535,27.037,0,0,U,M,8184,11060,14524,17723,19946
ARR2641807,Chachaura-Binaganj,8,7,77.1769,27.0195,0,0,U,TP,8623,12319,15234,17339,21860
ARR1240807,Deeg,8,7,77.3278,27.4784,0,0,U,M,15539,33061,34083,40859,44999
ARR1461807,Kaman,8,7,77.2678,27.6527,0,0,U,M,12327,22013,24190,30793,38040
ARR2437807,Kumher,8,7,77.3761,27.3121,0,0,U,M,7854,16028,16355,20296,23540
ARR5669,Mayamankurichi,8,7,77.5039,8.8858,0,0,R,R,1670,6681,8067,9491,10340
ARR2140807,Nadbai,8,7,77.1968,27.2187,0,0,U,M,9710,15413,17126,21649,26411
ARR1554807,Nagar,8,7,77.0999,27.4232,0,0,U,M,11132,22375,23093,30209,36298
ARR4579,Pinagwan_,8,7,77.1029,27.8955,0,0,U,CT,3638,4983,5033,8441,12612
ARR3636807,Rupbas,8,7,77.5914,26.9956,0,0,R,R,6775,9542,10044,12555,15755
ARR3367807,SeekriChakNo2,8,7,77.0733,27.5761,0,0,R,R,8034,10426,10757,13447,17148
ARR1108,Tholicode,8,7,77.0561,8.6461,0,0,R,R,25954,40337,42666,50196,50221
ARR866808,Bari,8,8,77.6146,26.6481,0,0,U,M,20112,35285,37537,50474,62721
ARR4485,Brammadesam,8,8,77.6146,11.5488,0,0,R,R,5902,10176,10823,12074,12839
ARR5777,Fatehpur_Biloch,8,8,77.3716,28.2571,0,0,R,R,4495,6331,7034,8275,10156
ARR4960,Pongalur,8,8,77.3717,10.9711,0,0,R,R,1998,2896,2986,8437,11688
ARR3207808,Sarmathura,8,8,77.3703,26.5112,0,0,U,CT,6425,10708,11883,14415,17988
ARR485809,Hindaun,8,9,77.0303,26.7353,0,0,U,M,36576,53474,62678,87391,109351
ARR4155809,Suroth,8,9,77.146,26.8098,0,0,R,R,5800,7838,9518,11551,13780
ARR2506809,Todabhim,8,9,76.8161,26.9174,0,0,U,M,10265,14877,16736,20845,22977
ARR4067810,ChauthKaBarwara,8,10,76.1554,26.05,0,0,R,R,3938,7160,9388,11886,14038
ARR395810,GangapurCity,8,10,76.7307,26.4786,0,0,U,M,56790,71727,75299,105396,130016
ARR3729810,KasbaBonli,8,10,76.2273,26.33,0,0,U,CT,5291,8398,10375,13098,15300
ARR4706810,KasbaKhandar,8,10,76.6044,26.0142,0,0,R,R,3935,6451,7361,9673,12273
ARR4673810,Khirni,8,10,76.3274,26.2548,0,0,R,R,4781,7712,8930,10911,12358
ARR4494810,MalarnaDoongar,8,10,76.4717,26.2891,0,0,R,R,4571,6926,7903,10650,12809
ARR5709,Sagwan,8,10,76.163,20.5142,0,0,R,R,1324,3394,3463,5926,10275
ARR3689810,Wazeerpur,8,10,76.8858,26.5653,0,0,R,R,5076,8751,9131,12254,15515
ARR1060811,Bandikui,8,11,76.5753,27.0485,0,0,U,M,18522,33473,36554,40861,52412
ARR2784811,Baswa,8,11,76.5836,27.1513,0,0,R,R,7402,13218,15082,18852,20831
ARR3018811,Bhandarej,8,11,76.4266,26.8838,0,0,R,R,8280,11343,11816,15360,19058
ARR3019811,Bhandarej,8,11,76.4266,26.8838,0,0,R,R,8280,11343,11816,15360,19058
ARR4190811,Geejgarh,8,11,76.636,26.8829,0,0,R,R,5481,8432,8901,11270,13712
ARR4191811,Geejgarh,8,11,76.636,26.8829,0,0,R,R,5481,8432,8901,11270,13712
ARR4737811,Lawan,8,11,76.2141,26.7714,0,0,R,R,2463,7245,8141,10738,12194
ARR1784811,Mahwa,8,11,76.9313,27.0475,0,0,U,CT,10004,13933,16068,23533,31372
ARR4832811,Mandawar,8,11,76.8523,27.1554,0,0,U,CT,3560,7266,7582,10109,11960
ARR5386811,Mandawari,8,11,76.4371,26.4858,0,0,R,R,4279,6292,7402,8934,10798
ARR4391811,Sikandara,8,11,76.5774,26.9628,0,0,R,R,3714,7738,8320,10512,13108
ARR3777812,Achrol,8,12,75.955,27.1338,0,0,R,R,5889,8923,9295,12796,15077
ARR3414812,Badhal,8,12,75.4385,27.2564,0,0,R,R,6337,10920,12036,14504,16811
ARR1512812,Bagru,8,12,75.5428,26.8087,0,0,U,M,12745,17069,18868,26534,37079
ARR4422812,Barnagar,8,12,76.1118,27.5568,0,0,R,R,4934,7987,8211,10929,12995
ARR4423812,Barnagar,8,12,76.1118,27.5568,0,0,R,R,4934,7987,8211,10929,12995
ARR2173812,Bassi,8,12,76.0497,26.833,0,0,U,CT,7466,13574,14916,19888,26029
ARR4162812,Bilandarpur,8,12,75.7583,27.381,0,0,R,R,6052,9080,9731,12076,13756
ARR3565812,Bilsanda,8,12,75.2069,26.792,0,0,R,TP,3922,7131,9141,13472,16036
ARR1683812,Chaksu,8,12,75.9438,26.6042,0,0,U,M,10475,17755,20408,29113,33432
ARR669812,Chomu,8,12,75.7244,27.1694,0,0,U,M,27828,39159,49489,64109,80335
ARR3620812,Dudu,8,12,75.2372,26.6748,0,0,R,R,4505,8045,8650,12328,15816
ARR5337812,ItawaBhopji,8,12,75.7232,27.2558,0,0,R,R,3384,6384,6939,8968,10881
ARR4289812,Jaitpura,8,12,75.7333,27.1218,0,0,R,R,4582,8020,8321,10677,13406
ARR4376812,Kaladera,8,12,75.6196,27.1867,0,0,R,R,3756,7991,8324,11045,13151
ARR2994812,Khejroli,8,12,75.6967,27.3329,0,0,R,R,7661,14732,15346,17943,19233
ARR1711812,KishangarhRenwal,8,12,75.3585,27.1597,0,0,U,M,10876,20521,21601,27565,32808
ARR1041812,Kotputli,8,12,76.1997,27.7052,0,0,U,M,14399,30258,33234,42509,53171
ARR5657,Lohian_Khas_,8,12,75.2099,31.1619,0,0,U,TP,3517,5496,6838,8548,10362
ARR2832812,Mahesail,8,12,75.9493,27.298,0,0,R,R,7932,10322,11011,15756,20509
ARR4807812,Nareda,8,12,76.1025,27.7289,0,0,R,R,4763,7633,8352,10247,12010
ARR1924812,Paota,8,12,76.0751,27.5868,0,0,R,R,5817,9159,9897,22665,29241
ARR1925812,Paota,8,12,76.0751,27.5868,0,0,R,R,5817,9159,9897,22665,29241
ARR4554812,Phagi,8,12,75.5597,26.5775,0,0,R,R,5151,8731,9095,11299,12682
ARR1751812,Phulera,8,12,75.2383,26.873,0,0,U,M,12390,21645,25111,29026,32143
ARR5516812,Rajnauta,8,12,76.1781,27.6069,0,0,R,R,4315,6638,6987,8684,10560
ARR5517RAJ1,Rajnauta,8,12,76.1781,27.6069,0,0,R,R,4315,6638,6987,8684,10560
ARR2589812,Sambhar,8,12,75.1844,26.9128,0,0,U,M,10085,19029,20684,22293,22327
ARR4290812,Samod,8,12,75.8093,27.2021,0,0,R,R,5710,8395,8566,11258,13403
ARR1537812,Shahpura,8,12,75.9671,27.3909,0,0,U,M,19240,26557,28702,30411,36615
ARR2824812,Viratnagar,8,12,76.1847,27.4351,0,0,U,M,8172,11194,13169,17242,20568
ARR3712813,Ajeetgarh,8,13,75.8228,27.4197,0,0,U,CT,5850,9141,9649,12808,15414
ARR3283813,Danta,8,13,75.1908,27.2944,0,0,U,CT,6295,11044,11658,14572,17575
ARR2956813,Divrala,8,13,75.7718,27.4114,0,0,R,R,7723,13314,14462,17269,19518
ARR590813,Fatehpur,8,13,74.9609,27.9939,0,0,U,M,25227,63068,66387,78462,92595
ARR1672813,Georai,8,13,75.5977,27.465,0,0,U,M,12237,20740,23665,28492,33562
ARR5472813,Jharli,8,13,75.8052,27.5046,0,0,R,R,3210,6829,7907,9349,10629
ARR1623813,Khandela,8,13,75.501,27.603,0,0,U,M,16764,22060,24269,30733,34625
ARR4127813,Kotwali,8,13,75.7292,27.7093,0,0,R,CT,2054,5263,5443,11018,13852
ARR889813,Lachhmangarh,8,13,75.0269,27.8229,0,0,U,M,12138,40713,48851,53727,61318
ARR1976813,Losal,8,13,74.9175,27.4011,0,0,U,M,9528,15880,19283,25361,28504
ARR5624,Meethri,8,13,74.9182,27.0606,0,0,R,R,1857,2444,2573,8233,10394
ARR1192813,Neem-Ka-Thana,8,13,75.7883,27.7375,0,0,U,M,18490,27837,30611,39467,46840
ARR3821813,Palsana,8,13,75.3797,27.4819,0,0,R,R,3840,9366,10537,11693,14884
ARR3822813,Palsana,8,13,75.3797,27.4819,0,0,R,R,3840,9366,10537,11693,14884
ARR5369813,Piprali,8,13,75.2519,27.6478,0,0,R,R,2418,6536,7159,9574,10830
ARR1703813,Ramgarh,8,13,74.9838,28.1673,0,0,U,M,15448,23406,24706,28458,33024
ARR2734813,Ranoli,8,13,75.3087,27.5459,0,0,R,R,6265,10962,13859,18005,21109
ARR1334813,Reengus,8,13,75.5686,27.3654,0,0,U,M,18351,26952,28804,36478,41663
ARR5225,Samadhbhai,8,13,75.1507,30.5989,0,0,R,R,5292,8535,8621,9204,11133
ARR1929814,BasniBelima,8,14,73.6502,27.1695,0,0,U,CT,9370,15361,16169,21558,29187
ARR5829814,Bidiyad,8,14,74.6983,26.9696,0,0,R,R,3205,4645,5465,8650,10074
ARR1008814,Didwana,8,14,74.5729,27.4001,0,0,U,M,18435,31245,32889,44675,54575
ARR5460814,GorediChancha,8,14,74.3204,26.8952,0,0,U,CT,3914,6212,7059,9838,10655
ARR3257814,Gothan,8,14,73.7374,26.6559,0,0,U,CT,3699,10276,10380,14929,17700
ARR5662814,JaswantGarh,8,14,74.4589,27.6529,0,0,R,R,4441,5843,6492,8890,10353
ARR5614814,KhatooKalan,8,14,74.3135,27.1254,0,0,R,R,3588,7036,7818,9455,10408
ARR5346814,KhatuKhurd,8,14,74.3523,27.1583,0,0,R,R,3048,7089,7542,9299,10865
ARR877814,KuchamanCity,8,14,74.8587,27.1491,0,0,U,M,20104,35270,36740,50587,61969
ARR787814,Ladnu,8,14,74.3947,27.6434,0,0,U,M,26642,49160,50183,59791,68618
ARR353814,Makrana,8,14,74.7251,27.0396,0,0,U,M,44502,75694,83001,116507,142695
ARR1030814,MertaCity,8,14,74.0331,26.6513,0,0,U,M,16823,32943,36772,46519,53540
ARR3401814,MertaRoad,8,14,73.9222,26.7212,0,0,U,CT,7915,12975,13516,15788,16905
ARR3409814,Mundw?,8,14,73.8235,27.063,0,0,U,M,9793,12396,12521,16017,16871
ARR2614814,Nawa,8,14,74.9993,27.0211,0,0,U,M,7453,12850,13967,18230,22088
ARR4986814,NimbiJodhan,8,14,74.344,27.5325,0,0,R,R,5603,6592,6939,9686,11614
ARR3751814,Parbatsar,8,14,74.7656,26.8867,0,0,U,M,6494,9019,10134,13821,15172
ARR5035814,RiyanBari,8,14,74.2392,26.5408,0,0,R,R,2898,7432,8542,9350,11523
ARR4480814,Thanwala,8,14,74.4661,26.5565,0,0,R,R,3797,7302,7686,10251,12857
ARR2932815,BalesarSatan,8,15,72.4936,26.3916,0,0,R,R,6916,10216,10981,14773,19709
ARR4484815,Baori,8,15,73.1811,26.619,0,0,R,R,4076,7279,7582,10212,12849
ARR4658815,Bap,8,15,72.3515,27.3749,0,0,R,R,3397,5757,6258,8890,12385
ARR2696815,Bhopalgarh,8,15,73.496,26.6555,0,0,R,R,7451,12018,14838,19078,21416
ARR1399815,Bilara,8,15,73.7077,26.181,0,0,U,M,11283,24006,31157,38661,39590
ARR3520815,Boroonda,8,15,73.8064,26.4657,0,0,R,R,4125,8088,9191,13061,16337
ARR5663815,Keroo,8,15,72.8711,26.3461,0,0,R,R,2908,5287,5565,8158,10351
ARR5599,Manor,8,15,72.9096,19.7233,0,0,U,CT,4152,6696,6764,8343,10421
ARR3804815,Mathaniya,8,15,72.9792,26.5298,0,0,R,R,5652,8312,9592,12669,14939
ARR3686815,Osian,8,15,72.9038,26.7289,0,0,R,R,4267,8533,9377,12452,15535
ARR1114815,Phalodi,8,15,72.3667,27.1307,0,0,U,M,17409,28539,39286,44868,49914
ARR1525815,PiparCity,8,15,73.5389,26.3855,0,0,U,M,14249,20955,27828,32735,36810
ARR4346815,Salawas,8,15,72.9843,26.1245,0,0,R,R,2754,6594,7820,10400,13206
ARR3154815,Tiwari,8,15,72.8854,26.5527,0,0,R,R,6440,9200,10000,12907,18267
ARR4576816,Mohangarh,8,16,71.2396,27.2869,0,0,R,R,1657,6136,6636,8895,12614
ARR2434816,Pokaran,8,16,71.917,26.9242,0,0,U,M,7652,14716,14865,18857,23554
ARR4833,Adalaj,8,17,72.5819,23.1649,0,0,U,CT,5068,7039,7821,9776,11957
ARR719817,Balotra,8,17,72.2479,25.8276,0,0,U,M,17291,42172,46858,61813,74496
ARR3941817,Chohtan,8,17,71.0726,25.4837,0,0,R,R,5851,8015,9718,12148,14499
ARR4262,Dahej,8,17,72.5825,21.7142,0,0,R,R,2575,3787,3825,6846,13495
ARR3683817,Jasol,8,17,72.2141,25.8184,0,0,R,R,4111,8060,8969,12414,15552
ARR3280817,Samdari,8,17,72.5793,25.8145,0,0,R,R,3558,5435,5920,15678,17590
ARR2348817,Siwana,8,17,72.4193,25.6492,0,0,R,R,2002,2634,2960,21155,24387
ARR3410818,Ahore,8,18,72.7806,25.3701,0,0,U,CT,5194,10820,11850,14623,16867
ARR4792818,Bagra,8,18,72.5944,25.1998,0,0,R,R,4355,6805,7183,9213,12039
ARR1035818,Bhinmal,8,18,72.2638,25.0087,0,0,U,M,15835,26758,33567,43106,53347
ARR3950,Fansa,8,18,72.789,20.336,0,0,R,R,7560,10648,10865,8417,14459
ARR5594,Kavi,8,18,72.6373,22.2004,0,0,R,R,5158,8188,9412,9576,10428
ARR5548818,Ramseen,8,18,72.5333,25.0477,0,0,R,R,3612,6122,6539,8376,10502
ARR3951818,RaniwaraKalan,8,18,72.2081,24.7497,0,0,R,R,5530,8379,8950,12797,14455
ARR1708818,Sanchore,8,18,71.7725,24.7541,0,0,U,M,11014,16944,18827,25884,32875
ARR5571818,Santhoo,8,18,72.5421,25.1755,0,0,R,R,1617,6469,7032,8343,10461
ARR5284818,Siyana,8,18,72.684,25.1422,0,0,R,R,2712,7138,8257,9994,11004
ARR4868818,Ummedabad,8,18,72.4386,25.3754,0,0,R,R,5039,6809,8133,10543,11874
ARR838819,AbuRoad,8,19,72.7673,24.4602,0,0,U,M,26194,43503,45577,56947,64785
ARR5695819,Jawal,8,19,72.7469,24.9908,0,0,R,R,5177,7092,7401,9040,10293
ARR5776819,Kalandri,8,19,72.6871,24.924,0,0,R,R,4017,6276,6704,8550,10158
ARR4099819,Mandar,8,19,72.3864,24.5567,0,0,R,R,3989,7253,8159,11285,13930
ARR2512819,MountAbu,8,19,72.7168,24.5971,0,0,U,M,11506,14943,15593,22152,22943
ARR2086819,Pindwara,8,19,73.0498,24.7937,0,0,U,M,7596,15216,16716,22806,27137
ARR363,Amli_CT,8,20,73.0071,20.2756,0,0,U,M,34792,59275,60648,69727,138612
ARR5543820,Bagri,8,20,73.808,25.896,0,0,R,R,4186,8542,9707,11420,10509
ARR2909820,Bali,8,20,73.2902,25.1902,0,0,R,M,7105,14210,15446,18201,19880
ARR5302820,Bera,8,20,73.1759,25.0008,0,0,R,R,4679,7670,8074,9853,10977
ARR2362820,Denkanikottai,8,20,73.9382,26.2046,0,0,U,TP,8832,15772,17143,19328,24252
ARR2301820,Falna,8,20,73.2373,25.2369,0,0,U,M,11535,14980,15768,21024,24839
ARR5425820,Kushalpura,8,20,73.9563,26.0972,0,0,R,R,5033,7989,8409,9693,10712
ARR4019820,MarwarJunction,8,20,73.6101,25.7254,0,0,U,CT,6366,9707,11250,12552,14221
ARR4303820,Nana,8,20,73.1085,24.9427,0,0,R,R,3136,7648,8051,10298,13369
ARR3780820,Nimaj,8,20,74.0031,26.15,0,0,R,R,5012,11390,12247,15309,15071
ARR212820,Pali,8,20,73.321,25.7779,0,0,U,MCORP,85266,127263,136842,187641,229956
ARR3094820,Rani,8,20,73.3116,25.3481,0,0,U,M,6802,12836,13255,16428,18585
ARR2071820,Sadri,8,20,73.4538,25.1847,0,0,U,M,13401,20939,21151,24413,27390
ARR1292820,Sojat,8,20,73.6639,25.926,0,0,U,M,16746,27453,30168,38883,43023
ARR3525820,SojatRoad,8,20,73.7483,25.8657,0,0,U,CT,5501,10506,11745,14728,16295
ARR834820,Sumerpur,8,20,73.0811,25.1554,0,0,U,M,22609,38980,41087,56271,65146
ARR3432820,Takhatgarh,8,20,73.0049,25.3248,0,0,U,M,8682,12059,12305,15809,16729
ARR333821,Beawar,8,21,74.3133,26.1015,0,0,U,M,56015,101591,109264,129939,152245
ARR1325821,Kekri,8,21,75.1541,25.9698,0,0,U,M,8183,20458,25573,34135,41890
ARR312821,Kishangarh,8,21,74.8571,26.585,0,0,U,M,64023,77431,84008,119199,159342
ARR4862,Maldhe,8,21,74.5541,20.5219,0,0,U,CT,3468,4687,4783,5232,11881
ARR5461821,Masooda,8,21,74.5066,26.0917,0,0,R,R,4384,6643,7221,9120,10653
ARR1099821,Nasirabad,8,21,74.7346,26.3021,0,0,U,CB,21653,40098,42208,49130,50804
ARR3700821,Peesangan,8,21,74.3802,26.397,0,0,R,R,6189,9377,10304,13700,15471
ARR2671821,Pushkar,8,21,74.5533,26.4905,0,0,U,M,7728,10586,11506,14791,21626
ARR2852821,Sarwar,8,21,75.0118,26.0631,0,0,U,M,9303,11208,12316,16202,20372
ARR5429821,Sawar,8,21,75.2191,25.7561,0,0,R,R,4686,5857,6891,8604,10705
ARR5504,Talen_,8,21,76.7287,23.5686,0,0,U,TP,1833,2656,7378,9089,10582
ARR1753821,Vijainagar,8,21,74.6491,25.9292,0,0,U,M,14138,19367,20603,27695,32124
ARR5419822,Aligarh,8,22,76.0823,25.9652,0,0,U,CT,4055,6551,7015,8972,10727
ARR2620822,Deoli,8,22,75.3749,25.7602,0,0,U,M,11189,15120,16779,20026,22065
ARR5252822,Diggi,8,22,75.4382,26.3777,0,0,R,R,4429,7506,8117,9762,11070
ARR5143822,Dooni,8,22,75.6001,25.8714,0,0,R,R,4049,6229,7160,9233,11295
ARR1564822,Malpura,8,22,75.3734,26.2885,0,0,U,M,13054,20721,23643,27360,36028
ARR1255822,Niwai,8,22,75.9282,26.3596,0,0,U,M,16149,23022,25389,35001,44407
ARR2433822,Todaraisingh,8,22,75.4857,26.0257,0,0,U,M,10900,16515,17641,21217,23559
ARR4606822,Uniara,8,22,76.0257,25.9158,0,0,U,M,7770,9141,9233,10834,12551
ARR4471823,Dei,8,23,75.9454,25.6786,0,0,R,R,5032,7741,7980,10815,12884
ARR2796823,Kaprain,8,23,76.0722,25.4065,0,0,U,M,6883,10926,13370,17784,20748
ARR2324823,Keshoraipatan,8,23,75.9386,25.2908,0,0,U,M,6411,11448,15748,21163,24627
ARR1907823,Lakheri,8,23,76.1773,25.6728,0,0,U,M,11234,20060,22891,26918,29572
ARR2961823,Nainwa,8,23,75.8532,25.7705,0,0,U,M,5899,10010,12148,15174,19485
ARR5764,Sulibhavi,8,23,75.9398,16.0421,0,0,R,R,5037,7870,8208,8898,10176
ARR3471824,Asind,8,24,74.3314,25.7341,0,0,U,M,2649,9461,11080,14123,16611
ARR3472824,Asind,8,24,74.3314,25.7341,0,0,U,M,2649,9461,11080,14123,16611
ARR5245824,Bagor,8,24,74.3843,25.3554,0,0,R,R,5209,7136,8504,9993,11090
ARR5079824,Banera,8,24,74.6733,25.5066,0,0,R,R,5264,7975,9227,10602,11436
ARR4042824,BeejoliyaKalan,8,24,75.323,25.1623,0,0,U,CT,5502,9325,9419,12389,14140
ARR4409824,Bigod,8,24,75.0084,25.2597,0,0,R,R,4312,7187,9521,10756,13062
ARR1302824,Gulabpura,8,24,74.6594,25.9046,0,0,U,M,15895,28751,29992,37668,42684
ARR4961824,HameerGarh,8,24,74.6315,25.1871,0,0,U,CT,3376,6493,7237,9747,11678
ARR2821824,Jahazpur,8,24,75.2759,25.6186,0,0,U,M,6657,12328,15080,18815,20586
ARR2509824,Mandalgarh,8,24,75.0919,25.2041,0,0,U,M,9102,13386,16635,20169,22967
ARR1719824,Shahpura,8,24,74.928,25.6264,0,0,U,M,10824,19329,23644,27792,32668
ARR5004825,Bhim,8,25,74.0802,25.7389,0,0,U,CT,5490,10557,10772,8770,11568
ARR3402825,Jamsande,8,25,73.9301,25.3079,0,0,U,M,8721,12246,15003,16672,16904
ARR1317825,Nathdwara,8,25,73.8173,24.9296,0,0,U,M,19447,29025,30878,37026,42016
ARR3875826,Bhalariya,8,26,73.7193,24.3627,0,0,U,CT,6913,9292,10351,11199,14744
ARR3223826,Bhinder,8,26,74.1865,24.5039,0,0,U,M,9677,13630,14739,16368,17878
ARR5105826,Dhariawad,8,26,74.4429,24.1019,0,0,U,CT,5467,8283,8812,10493,11368
ARR5106826,Dhariawad,8,26,74.4429,24.1019,0,0,U,CT,5467,8283,8812,10493,11368
ARR2530826,Fatehnagar,8,26,74.0946,24.8158,0,0,U,M,9112,14237,16485,19648,22812
ARR4335826,Kanor,8,26,74.265,24.4381,0,0,U,M,5467,9762,11303,12618,13239
ARR4918826,KherwaraChhaoni,8,26,73.594,23.9837,0,0,U,CT,3956,6564,7181,9882,11765
ARR4983826,Mavli,8,26,73.9749,24.7922,0,0,U,CT,4109,7610,8561,9590,11617
ARR1656827,Sagwara,8,27,74.024,23.6748,0,0,U,M,13157,19349,22240,31127,33888
ARR5452828,Kushalgarh,8,28,74.4516,23.1999,0,0,U,M,4626,7117,9341,10108,10666
ARR3591828,Partapur,8,28,74.1765,23.5934,0,0,U,CT,5775,10022,12437,14721,15938
ARR3649829,BariSadri,8,29,74.4738,24.416,0,0,U,M,7681,12001,13318,15004,15713
ARR3140829,ChhotiSadri,8,29,74.7021,24.385,0,0,U,M,9445,13688,14621,16609,18360
ARR2774829,Kapasan,8,29,74.3129,24.8879,0,0,U,M,8180,13633,16028,18663,20869
ARR878829,Nimbahera,8,29,74.6868,24.6207,0,0,U,M,14696,36740,41921,53327,61949
ARR1239829,Rawatbhata,8,29,75.5907,24.9308,0,0,U,M,17803,27496,30598,38221,45008
ARR4958830,Chechat,8,30,75.8862,24.7653,0,0,U,CT,4198,6173,7694,10259,11690
ARR2112830,Itawa,8,30,76.3804,25.5378,0,0,R,R,7508,11551,12193,19971,26741
ARR2360830,Kaithoon,8,30,75.9708,25.1259,0,0,U,M,8673,12754,16040,20372,24260
ARR50830,Kota,8,30,75.8405,25.1777,0,0,U,MCORP,299332,475665,550420,728313,1001365
ARR818830,RamganjMandi,8,30,75.944,24.6471,0,0,U,M,14478,35212,37577,53443,66375
ARR2643830,Sangod,8,30,76.286,24.926,0,0,U,M,8360,13063,15603,18649,21846
ARR2591830,Suket,8,30,76.0438,24.6477,0,0,U,CT,4875,9558,11056,16992,22319
ARR3450830,Sultanpur,8,30,76.1782,25.2907,0,0,R,R,7339,9409,10175,13342,16684
ARR5842,Udpura_,8,30,75.9714,24.727,0,0,U,CT,1868,4916,6073,8760,10051
ARR1738831,Antah,8,31,76.2961,25.1573,0,0,U,M,5284,17044,18526,26784,32377
ARR2617831,Atru,8,31,76.6718,24.8748,0,0,U,CT,3742,8755,11571,17630,22080
ARR1742831,Chhabra,8,31,76.8484,24.6643,0,0,U,M,8561,15565,16384,22796,32285
ARR3058831,Chhipabarod,8,31,76.7119,24.6224,0,0,U,CT,6811,13354,13489,16027,18837
ARR2269831,Mangrol,8,31,76.5108,25.3329,0,0,R,R,12064,15874,16957,21842,25073
ARR3796831,Seeswali,8,31,76.3566,25.343,0,0,R,R,6946,10067,10272,12753,14991
ARR2158832,Aklera,8,32,76.5698,24.4142,0,0,U,M,9535,13621,14490,18172,26240
ARR1210832,BhawaniMandi,8,32,75.8343,24.4173,0,0,U,M,16861,28855,31916,39125,46237
ARR4097832,Dag,8,32,75.8349,23.9321,0,0,R,R,6026,8994,9607,11771,13935
ARR1491832,Jhalrapatan,8,32,76.1728,24.5419,0,0,U,M,11764,18673,23067,30103,37506
ARR3344832,Khanpur,8,32,76.3937,24.7319,0,0,U,TP,9078,14554,15641,13761,17247
ARR4132832,Khanpur,8,32,76.3937,24.7319,0,0,U,CT,9078,14554,15641,13061,13848
ARR5147832,Manoharthana,8,32,76.8058,24.2366,0,0,U,CT,3799,6784,7161,9228,11292
ARR4497832,Pirawa,8,32,76.0337,24.1616,0,0,U,M,5569,8982,9594,11185,12807
ARR4498832,Pirawa,8,32,76.0337,24.1616,0,0,U,M,5569,8982,9594,11185,12807
ARR3884832,Sunel,8,32,75.9581,24.371,0,0,R,R,6897,9995,10550,13187,14696
ARR4864,Bhiduki,9,1,77.4521,27.9172,0,0,R,R,4438,8069,8494,9993,11878
ARR4123,Chettikulam,9,1,77.616,8.1609,0,0,R,R,2410,4381,5260,9423,13866
ARR540901,Deoband,9,1,77.676,29.6925,0,0,U,M,42206,52923,68091,84680,100056
ARR925901,Gangoh,9,1,77.2632,29.78,0,0,U,M,19301,32713,41198,53913,59279
ARR2876901,Hallikhed,9,1,77.616,30.1708,0,0,U,TP,8621,11973,16268,17162,20163
ARR508291,Kailashpur,9,1,77.6353,29.9751,0,0,U,CT,5191,7015,7307,9743,11422
ARR3208901,Keelaiyur,9,1,77.4684,30.0792,0,0,U,TP,6733,10785,11700,16115,17984
ARR4142901,KewasNizamat,9,1,77.7518,30.0346,0,0,U,CT,4906,7161,8313,10281,13820
ARR463991,LakhnotiMust,9,1,77.198,29.7744,0,0,R,R,4380,7822,7901,9715,12443
ARR467791,ManakMau,9,1,77.4972,29.9647,0,0,R,R,4757,6996,7773,9799,12353
ARR4178901,MirzapurPole,9,1,77.6231,30.2558,0,0,R,R,2263,3143,3380,11202,13742
ARR2549901,Nakur,9,1,77.3035,29.9198,0,0,U,M,7210,11629,15182,20715,22712
ARR2567901,Nanauta,9,1,77.4169,29.7117,0,0,U,TP,6174,12863,12993,16972,22551
ARR2027901,RampurManiharan,9,1,77.4519,29.8052,0,0,U,TP,12315,16420,20000,24844,27979
ARR303991,Sarsawan,9,1,77.4004,30.0166,0,0,U,M,9662,11641,12384,16801,18956
ARR3382901,ThappelIsmailpur,9,1,77.8283,30.1003,0,0,R,R,5596,8352,10377,13050,17018
ARR5394,Tilbegumpur,9,1,77.6241,28.4924,0,0,R,R,2631,3927,5328,6683,10790
ARR4768902,Ailum,9,2,77.2964,29.2768,0,0,U,TP,5563,10699,13044,13064,12110
ARR4769902,Ailum,9,2,77.2964,29.2768,0,0,U,TP,5563,10699,13044,13064,12110
ARR2518902,AtharaBeki,9,2,77.5502,29.351,0,0,U,TP,3624,11580,13061,17187,22914
ARR501992,Babri,9,2,77.4282,29.4927,0,0,R,R,4078,6578,7916,9739,11544
ARR2835902,Baghra,9,2,77.5755,29.4661,0,0,R,R,7675,11123,14691,17497,20504
ARR5080902,Bagowali,9,2,77.7297,29.5176,0,0,R,R,5254,8209,8991,10578,11436
ARR2800902,Banat,9,2,77.3534,29.4641,0,0,U,TP,6120,10737,13634,19081,20728
ARR5050902,Barhi,9,2,77.2569,29.4886,0,0,R,R,5619,6459,6900,8710,11502
ARR337892,Basera,9,2,77.8517,29.5557,0,0,R,R,5216,10031,12458,15379,17031
ARR3232902,Bhokarhedi,9,2,77.9372,29.5067,0,0,U,TP,9718,12148,14006,15976,17829
ARR516192,Bhopa,9,2,77.8793,29.4768,0,0,R,R,1799,5995,7491,9336,11274
ARR1028902,Budhana,9,2,77.4734,29.2898,0,0,U,TP,16158,20198,26931,32950,53722
ARR1698902,Charthaval,9,2,77.5933,29.5461,0,0,U,TP,10897,17581,21176,28649,33089
ARR4452902,ChauraiKhas,9,2,77.7704,29.5718,0,0,R,TP,4354,8374,9202,11394,12956
ARR4681902,ChausanaVishatAht,9,2,77.1797,29.6664,0,0,R,R,3241,6001,7484,10469,12349
ARR2144902,Gangeru,9,2,77.2151,29.3103,0,0,R,R,2999,5880,16332,20811,26373
ARR4932902,GarhiPukhta,9,2,77.3093,29.5489,0,0,U,TP,3785,7279,9195,12082,11748
ARR548492,Goela,9,2,77.592,29.3046,0,0,R,R,5498,7531,8606,9709,10610
ARR526092,Gogawan,9,2,77.2249,29.4784,0,0,R,CT,2431,4191,4277,8631,11054
ARR4199902,Harduaganj,9,2,77.6311,29.497,0,0,R,TP,4502,7504,9682,11582,13690
ARR4070,Harohalli,9,2,77.4724,12.6812,0,0,R,R,3967,7778,9906,11338,14024
ARR5713,Hausainpur_Bopara,9,2,77.6982,29.3515,0,0,R,R,2037,5092,6466,8444,10267
ARR4144,Jai,9,2,77.849,28.9839,0,0,R,R,4414,7133,7303,10377,13811
ARR203592,Jalalabad,9,2,77.4388,29.6179,0,0,U,TP,16121,20668,22465,23588,27921
ARR2094902,Jansath,9,2,77.8488,29.3253,0,0,U,TP,9755,15278,19654,23927,27015
ARR495192,Jaroda,9,2,77.6877,29.4018,0,0,R,R,5430,6873,7471,9987,11708
ARR4952UP1,Jaroda,9,2,77.6877,29.4018,0,0,R,R,5430,6873,7471,9987,11708
ARR2354902,Jhinjhana,9,2,77.2245,29.5222,0,0,U,TP,7012,11567,14521,20765,24314
ARR566902,Kairana,9,2,77.205,29.3958,0,0,U,M,31696,46524,58139,76951,96061
ARR4323902,Kakarauli,9,2,77.9254,29.3917,0,0,R,R,5144,7564,9118,11410,13298
ARR982902,Kandhla,9,2,77.2711,29.3214,0,0,U,M,16123,28562,35899,46147,55988
ARR502092,Kasrewa,9,2,77.5391,29.3086,0,0,R,R,3013,5381,7286,9889,11544
ARR5021UP1,Kasrewa,9,2,77.5391,29.3086,0,0,R,R,3013,5381,7286,9889,11544
ARR534992,Kawal,9,2,77.83,29.3596,0,0,R,R,5018,6602,7774,9433,10861
ARR556902,Khatauli,9,2,77.7321,29.2778,0,0,U,M,16248,19369,48155,77228,97427
ARR574992,Kudana,9,2,77.3698,29.43,0,0,R,R,4068,7977,9152,9663,10203
ARR3106902,Kutesra,9,2,77.6037,29.6054,0,0,R,R,7506,11548,12156,15541,18534
ARR5329,Maksudangarh,9,2,77.2546,24.0617,0,0,R,R,3846,5574,6125,8958,10917
ARR485792,Mansoorpur,9,2,77.7479,29.3704,0,0,R,R,2824,6723,7795,9744,11904
ARR1287902,Miranpur,9,2,77.9476,29.2904,0,0,U,TP,14675,25151,31010,37219,43299
ARR489892,Morna,9,2,77.9358,29.4652,0,0,R,R,2778,5448,7596,9578,11815
ARR4742902,Nawala,9,2,77.6981,29.317,0,0,R,R,4960,7085,8640,10020,12177
ARR5587,Pachamalayankottai,9,2,77.8794,10.2736,0,0,R,R,4449,6356,7169,9189,10438
ARR2766902,Palri,9,2,77.5321,29.3557,0,0,R,R,5509,10357,12062,18130,20925
ARR2890902,Pamur,9,2,77.4686,29.4145,0,0,U,CT,9417,13079,13624,15245,20000
ARR2859902,Purbaliyan,9,2,77.6659,29.3573,0,0,R,R,6163,9941,13550,16850,20297
ARR1944902,Purquazi,9,2,77.8418,29.6582,0,0,U,TP,7779,13412,17752,23599,29041
ARR2264902,Shahbudinpur,9,2,77.6901,29.5055,0,0,U,CT,3342,4707,4955,10164,25157
ARR375902,Shamli,9,2,77.3109,29.4486,0,0,U,M,39380,68116,91417,113853,135948
ARR3650902,Shaoron,9,2,77.5543,29.3333,0,0,R,R,7203,10439,11667,13890,15711
ARR2856902,Shernagar,9,2,77.7423,29.4449,0,0,R,R,4877,9525,11498,15147,20314
ARR4406902,Tawli,9,2,77.6252,29.4151,0,0,R,R,3180,5782,7697,10580,13071
ARR1534902,ThanaBhawan,9,2,77.4171,29.5876,0,0,U,TP,10104,18711,25577,31161,36669
ARR555692,Tisang,9,2,77.8488,29.2687,0,0,R,R,4229,6219,6828,9104,10490
ARR3764902,Un,9,2,77.2541,29.5862,0,0,U,TP,7007,11302,13303,14582,15124
ARR5354,Vijayapathi,9,2,77.7429,8.178,0,0,R,R,2201,6474,7698,9057,10854
ARR4173,Adaun,9,3,78.1588,27.8311,0,0,U,M,554,879,1152,5464,13747
ARR1936903,Afzalgarh,9,3,78.6737,29.3932,0,0,U,M,11318,14892,18650,24975,29101
ARR441593,Bhaguwala,9,3,78.2569,29.7032,0,0,R,R,3763,6488,6758,9824,13036
ARR4176,Burhasi,9,3,78.2038,27.9131,0,0,R,R,554,879,1152,5863,13747
ARR652903,Chandpur,9,3,78.2697,29.1341,0,0,U,M,26178,41552,55825,68287,83441
ARR672903,Dhampur,9,3,78.511,29.3062,0,0,U,M,32908,43798,56391,70565,80103
ARR544393,HajiMohammadpur,9,3,78.4573,29.5932,0,0,R,R,3779,5725,7358,8948,10682
ARR2948903,Haldaur,9,3,78.2836,29.2896,0,0,U,M,5716,15041,15830,17692,19567
ARR2757903,Jhalu,9,3,78.225,29.336,0,0,U,TP,7477,12461,14808,18704,20978
ARR879903,Kiratpur,9,3,78.2025,29.5055,0,0,U,M,21814,32079,43757,55769,61946
ARR2739903,Mandawar,9,3,78.1266,29.4869,0,0,U,TP,6025,11587,15408,19558,21078
ARR4051903,MukrampurKhema,9,3,78.1587,29.3334,0,0,U,CT,4069,7266,7414,11125,14089
ARR573903,Nagina,9,3,78.4352,29.4428,0,0,U,M,25707,50405,58513,71350,95246
ARR562903,Najibabad,9,3,78.3536,29.6161,0,0,U,M,42450,59374,71349,85010,96382
ARR1171903,Nehtaur,9,3,78.3871,29.3236,0,0,U,M,18506,27621,34753,44320,47834
ARR1431903,Noorpur,9,3,78.407,29.1493,0,0,U,M,11985,21790,22235,33590,38806
ARR3933,RPudupatti_,9,3,78.271,11.4968,0,0,U,TP,3744,4680,4776,11915,14524
ARR2668903,Sahanpur,9,3,78.3239,29.6332,0,0,U,TP,7055,11023,14299,18349,21639
ARR2669903,Sahanpur,9,3,78.3239,29.6332,0,0,U,TP,7055,11023,14299,18349,21639
ARR976903,Seohara,9,3,78.586,29.2086,0,0,U,M,16500,31051,38733,49622,56145
ARR2256903,SerBasuChand,9,3,78.738,29.3901,0,0,R,R,6941,12607,16835,20928,25204
ARR871903,Sherkot,9,3,78.572,29.3253,0,0,U,M,22570,33191,42230,52880,62226
ARR3318903,Tajpur,9,3,78.484,29.1634,0,0,R,R,5192,10816,11756,15675,17383
ARR2448903,Warhapur,9,3,78.5304,29.5246,0,0,U,TP,5228,14131,15650,20866,23456
ARR2449903,Warhapur,9,3,78.5304,29.5246,0,0,U,TP,5228,14131,15650,20866,23456
ARR1513904,Bahjoi,9,4,78.623,28.3921,0,0,U,M,10930,16073,21723,30000,37037
ARR1190904,BhojpurDharampur,9,4,78.828,28.9486,0,0,U,TP,9293,13959,27824,36526,46907
ARR850904,Bilari,9,4,78.8029,28.6222,0,0,U,M,14053,28205,37705,50679,63705
ARR369904,Chandausi,9,4,78.7841,28.4484,0,0,U,M,62096,73552,91028,118514,137797
ARR5475,Chinnamandem,9,4,78.6787,13.9412,0,0,R,R,5017,7963,8822,9901,10623
ARR486394,DevapurMustahkam,9,4,78.8068,28.7956,0,0,R,R,2684,4792,5654,8121,11879
ARR4474904,DhakiaPeeroo,9,4,78.7694,29.0588,0,0,R,R,4304,5249,6998,10631,12865
ARR3908904,Janaita,9,4,78.7364,28.4746,0,0,R,R,4696,6179,7595,11023,14604
ARR2951904,Jhalda,9,4,78.8286,28.8316,0,0,R,R,9821,15840,17217,17872,19544
ARR495694,Kaithal,9,4,78.7754,28.4273,0,0,R,R,3910,6207,7698,9296,11695
ARR4378,Krishnasamudram_,9,4,78.8075,10.7738,0,0,U,CT,4517,9034,9125,9215,13146
ARR1670904,Kundarki,9,4,78.7845,28.6833,0,0,U,TP,10437,17608,20558,27356,33621
ARR5687,Lakkireddipalle,9,4,78.6985,14.1836,0,0,R,R,3256,5252,6955,8964,10303
ARR4670904,Maindargi,9,4,78.7038,29.2315,0,0,R,R,9072,11484,12483,12148,12363
ARR4980,Manpur_Nagria,9,4,78.8294,27.9071,0,0,R,R,2549,5424,6280,8546,11629
ARR4214904,MehmoodpurMafi,9,4,78.66,28.6617,0,0,R,R,3532,5351,7246,11167,13649
ARR5137,Mottur,9,4,78.6242,12.4403,0,0,R,R,3564,4400,4850,7873,11304
ARR2503904,MugalpurUrfAghwanpurMustahk,9,4,78.7223,28.9301,0,0,R,R,5280,9600,12941,18800,23000
ARR3141904,Narauli,9,4,78.7125,28.4851,0,0,U,TP,7394,10414,13630,16711,18346
ARR1529904,Pakbara,9,4,78.6748,28.8255,0,0,U,CT,4866,14744,16026,24797,36728
ARR3501,Raikal,9,4,78.8082,18.9052,0,0,R,R,2979,9310,12184,14857,16404
ARR3617904,RatanpurKalan,9,4,78.6944,28.7883,0,0,R,R,5297,7158,9427,12316,15833
ARR3928904,SalempurKhas,9,4,78.6441,29.0958,0,0,R,R,5055,7886,9375,11508,14548
ARR193904,Sambhal,9,4,78.5725,28.5858,0,0,U,M,92846,120607,165841,202887,247596
ARR475794,ShahbazpurKalan,9,4,78.5578,28.7685,0,0,R,R,2695,4019,5155,9196,12158
ARR4294904,SharifNagar,9,4,78.7778,29.2131,0,0,R,R,5803,7635,8122,10831,13396
ARR213094,Sirsi,9,4,78.6422,28.6403,0,0,U,TP,8664,16662,18310,21373,26519
ARR1261904,Thakurdwara,9,4,78.8599,29.1914,0,0,U,M,15129,24015,25279,35371,44255
ARR3238904,UmriKalan,9,4,78.5669,29.0384,0,0,U,TP,7076,9190,11365,15294,17803
ARR4041,Amarwara_,9,5,79.1704,22.2972,0,0,U,TP,5506,8471,9208,12096,14141
ARR535395,DariyalEhatmali,9,5,79.015,29.0518,0,0,R,R,3372,5439,6335,8964,10855
ARR1965905,Kemri,9,5,79.2019,28.8054,0,0,U,TP,8393,13537,17481,23871,28698
ARR3250905,Maswasi,9,5,79.0648,29.1011,0,0,U,TP,5974,8786,11830,15229,17737
ARR1845905,Milak,9,5,79.1686,28.6102,0,0,U,M,9116,14470,18962,25576,30553
ARR2877905,Saifni,9,5,78.8905,28.6526,0,0,R,R,5238,9700,10211,15070,20145
ARR1448905,Shahabad,9,5,79.0084,28.5663,0,0,U,TP,32967,51511,53657,32370,38276
ARR1610905,Suar,9,5,79.061,29.0261,0,0,U,M,9645,16278,21504,28501,34898
ARR4316,Thana_Dariyav_Ganj,9,5,79.0655,27.6236,0,0,R,R,6007,7509,8391,10570,13314
ARR223906,Amroha,9,6,78.468,28.9046,0,0,U,M,87335,117031,145898,177117,213118
ARR1802906,Bachhraon,9,6,78.2349,28.9238,0,0,U,M,13322,20496,24097,26361,31101
ARR5171,Chilamkur,9,6,78.4695,14.6473,0,0,R,R,4567,7741,8148,9880,11239
ARR525496,ChuchailaKalan,9,6,78.2686,28.999,0,0,R,R,3101,5743,6974,8901,11061
ARR995906,Gajraula,9,6,78.2397,28.8445,0,0,U,TP,8493,19750,21096,39790,55048
ARR831906,Hasanpur,9,6,78.2836,28.7234,0,0,U,M,26702,43134,45611,56276,65275
ARR2680906,Joya,9,6,78.473,28.8366,0,0,U,TP,4499,7474,8332,16034,21561
ARR5717,Kalamalla,9,6,78.4725,14.6988,0,0,R,R,1597,2662,3239,6945,10257
ARR5367,Kalappanaickenpatti_,9,6,78.245,11.329,0,0,U,TP,6839,8882,11383,10278,10831
ARR1387906,NaugawanSadat,9,6,78.4036,29.0025,0,0,U,TP,12043,21170,23282,31604,39978
ARR475596,SaidNagli,9,6,78.3962,28.6697,0,0,R,R,3657,6530,7247,9428,12160
ARR2335906,Ujhari,9,6,78.3568,28.6616,0,0,U,TP,6070,11453,14125,18721,24488
ARR511497,Agwanpur,9,7,77.9975,28.9965,0,0,R,R,4589,7523,8177,9858,11353
ARR4439907,Ajrara,9,7,77.818,28.8377,0,0,R,R,4785,8250,8684,11513,12974
ARR283397,Bijoli,9,7,77.7582,28.8657,0,0,R,R,1991,4236,4745,9864,20505
ARR4988907,BisandaBuzurg,9,7,77.9716,29.202,0,0,U,TP,4767,8513,9206,10561,11611
ARR2923907,Daurala,9,7,77.703,29.1137,0,0,U,TP,7254,10841,11746,12979,19776
ARR5131907,Dola,9,7,77.849,28.9839,0,0,R,R,3487,7133,7303,10377,11320
ARR2135907,Hastinapur,9,7,77.9603,29.1426,0,0,U,TP,9555,14930,15081,21249,26452
ARR3810907,Incholi,9,7,77.8104,29.0466,0,0,R,R,7240,10197,10300,12094,14914
ARR3983907,Kharkhoda,9,7,77.7413,28.8362,0,0,U,TP,5312,10023,10550,12593,14364
ARR1830907,Kithaur,9,7,77.9377,28.866,0,0,U,TP,4535,8187,20741,25885,30861
ARR2625907,Lawar,9,7,77.7759,29.1113,0,0,U,TP,7806,12590,14471,18035,22024
ARR5290,Mahaban_,9,7,77.7421,27.4324,0,0,U,TP,3798,5586,6543,8576,10995
ARR566497,Mahalka,9,7,77.7788,29.152,0,0,R,R,6139,8724,9119,9445,10351
ARR3790907,Masauli,9,7,77.5222,29.104,0,0,U,TP,3687,8015,10295,12609,15007
ARR663907,Mawana,9,7,77.9189,29.1008,0,0,U,M,30199,51184,51701,69191,81443
ARR2915907,Parikshitgarh,9,7,77.9286,28.9777,0,0,U,TP,7927,12583,13677,17369,19830
ARR2905907,Phalauda,9,7,77.8292,29.1873,0,0,U,TP,7421,11595,13970,17206,19908
ARR4032907,RasulpurDhaulri,9,7,77.4761,28.9226,0,0,R,R,6110,8728,9487,11993,14187
ARR5492907,RasulpurRohta,9,7,77.5461,29.035,0,0,R,R,3668,7805,9182,10050,10598
ARR4138907,SaifpurFirojpur,9,7,77.9829,29.2262,0,0,R,R,4882,6688,7687,10553,13828
ARR5316,Salai,9,7,77.8107,28.6836,0,0,R,R,3667,6527,6735,8567,10960
ARR764907,Sardhana,9,7,77.6115,29.1468,0,0,U,M,26187,43900,46352,57252,70717
ARR2290907,Sewalkhas,9,7,77.5281,28.9386,0,0,U,TP,9263,13826,14402,18451,24882
ARR3374907,Shahajhapur,9,7,77.9616,28.8533,0,0,R,R,7234,9775,10625,14166,17066
ARR5204908,AminagarSarai,9,8,77.3951,28.9872,0,0,U,TP,4239,6837,8274,10112,11174
ARR3582908,Asara,9,8,77.308,29.2462,0,0,R,R,3007,4699,4795,13547,15959
ARR136698,Bali,9,8,77.2861,28.9697,0,0,R,R,9492,15806,16655,35853,40534
ARR3634908,Baoli,9,8,77.2685,29.1374,0,0,R,R,7723,11947,13907,15190,15756
ARR481908,Baraut,9,8,77.2631,29.1018,0,0,U,M,29093,63942,74364,92410,110110
ARR4935908,Bijrol,9,8,77.3152,29.1248,0,0,R,R,5315,9843,11013,11371,11742
ARR3033908,Chhaprauli,9,8,77.1744,29.2095,0,0,U,TP,8973,13805,16008,17798,18970
ARR579898,Daha,9,8,77.4103,29.2025,0,0,R,R,2345,8375,8460,9197,10128
ARR4527908,Daula,9,8,77.331,28.9584,0,0,R,R,4093,6396,7617,10682,12743
ARR4528908,Daula,9,8,77.331,28.9584,0,0,R,R,4093,6396,7617,10682,12743
ARR4038908,Doghat,9,8,77.3676,29.1967,0,0,U,TP,6212,10019,12309,13263,14166
ARR4661,Kannamanaickanur,9,8,77.2685,10.5531,0,0,R,R,2477,7507,8629,11005,12375
ARR1143908,Khekada,9,8,77.2843,28.8659,0,0,U,TP,18686,31672,35191,40335,48676
ARR3889908,Kishanpur,9,8,77.2833,29.194,0,0,R,R,8015,12631,14587,13286,14674
ARR5519908,Loomb,9,8,77.2191,29.2623,0,0,R,R,4867,8391,9050,10116,10548
ARR4894908,Malakpur,9,8,77.2252,29.1179,0,0,R,R,5314,9224,11122,11288,11824
ARR3874,Neendakara-A,9,8,77.3986,8.1566,0,0,R,R,1989,4850,6139,6792,14744
ARR5233908,Nirpura,9,8,77.3981,29.2309,0,0,R,R,5768,8740,10163,10932,11114
ARR4686908,Periyakodiveri,9,8,77.2658,28.9536,0,0,U,TP,2625,4304,5448,12405,12330
ARR3224908,Rataul,9,8,77.3415,28.8325,0,0,R,R,4866,8110,10600,13613,17869
ARR4424908,SaroorpurKalan,9,8,77.2324,29.0297,0,0,R,R,5375,9429,10822,10959,12990
ARR4237909,BahadurGarh,9,9,78.1175,28.6694,0,0,R,R,6195,8726,10388,11877,13586
ARR3584909,BhajedaKalan,9,9,77.7224,28.602,0,0,R,R,6329,11301,11532,12974,15957
ARR4102909,Chirauri,9,9,77.3357,28.779,0,0,R,R,7315,9551,10620,12914,13922
ARR504599,Dautai,9,9,78.054,28.796,0,0,R,R,5076,7464,7857,9948,11510
ARR394099,Dehra,9,9,77.6039,28.6472,0,0,R,R,3566,6857,7218,9893,14501
ARR4061909,Dhaulana,9,9,77.6502,28.6349,0,0,R,R,5418,9183,9276,11189,14060
ARR5736,Gandhari,9,9,78.1184,18.3931,0,0,R,R,4489,5830,6956,8661,10226
ARR1214909,Garhmukteshwar,9,9,78.0978,28.7867,0,0,U,M,9847,20950,25241,33847,46077
ARR162909,Hapur,9,9,77.778,28.7289,0,0,U,M,91245,147218,159811,230354,285816
ARR3189909,Kalchhina,9,9,77.5818,28.77,0,0,R,R,4895,8587,9334,11667,18079
ARR268909,Modinagar,9,9,77.5712,28.8241,0,0,U,M,70770,123147,132910,153406,182047
ARR3152909,Nahal,9,9,77.5547,28.717,0,0,R,R,5966,8773,9641,13656,18295
ARR586909,Pilkhuwa,9,9,77.6538,28.7132,0,0,U,M,33572,50508,53695,73562,92792
ARR4680909,Rori,9,9,77.6095,28.8552,0,0,U,CT,3204,8009,8520,10650,12350
ARR481399,Vait,9,9,78.0136,28.7618,0,0,R,R,2038,6573,7303,9838,12000
ARR2719910,Dankaur,9,10,77.5539,28.3503,0,0,U,TP,7893,12434,14700,18663,21238
ARR1743910,Jewar,9,10,77.5564,28.1221,0,0,U,TP,12851,17604,21376,27016,32269
ARR3703910,Rabupura,9,10,77.6007,28.251,0,0,U,TP,5545,10082,10769,13046,15454
ARR1939911,Anupshahr,9,11,78.2672,28.3557,0,0,U,M,9724,15193,19684,23795,29087
ARR5759911,BhawanBahadurNagar,9,11,77.9555,28.6394,0,0,U,TP,3661,6779,9101,9322,10188
ARR3795911,Bugrasi,9,11,78.1418,28.6109,0,0,U,TP,4070,8307,11093,12789,14992
ARR5780911,Danpur,9,11,78.2066,28.194,0,0,R,R,4663,6387,7418,8972,10155
ARR1276911,Debai,9,11,78.2595,28.2067,0,0,U,M,13136,24289,30080,38544,43875
ARR4948,Dhakka,9,11,78.3855,28.6971,0,0,R,R,663,975,1129,9162,11716
ARR2527,Dhatauli,9,11,77.8644,27.8292,0,0,R,R,1541,2234,2280,7214,22825
ARR3640,Elumalai_,9,11,77.699,9.8638,0,0,U,TP,9793,13990,15307,14130,15746
ARR1098911,Gulaothi,9,11,77.7941,28.5882,0,0,U,M,16115,24416,33982,42903,50823
ARR912911,Jahangirabad,9,11,78.106,28.4049,0,0,U,M,19046,29301,37981,51394,59858
ARR385911,Khurja,9,11,77.8525,28.2552,0,0,U,M,53486,70760,84442,110149,132472
ARR4967,Naranapuram_,9,11,77.8551,9.4555,0,0,U,CT,4363,7271,7654,9331,11665
ARR2534911,Naraura,9,11,78.3839,28.1968,0,0,U,TP,8879,14556,15652,20407,22775
ARR2807911,Pahasu,9,11,78.0649,28.1718,0,0,U,TP,6859,12471,13127,17122,20672
ARR4705911,Palakser,9,11,78.3008,28.1926,0,0,R,R,5448,6896,8381,9994,12277
ARR1183911,Siana,9,11,78.059,28.6266,0,0,U,M,22299,30254,38145,41452,47108
ARR514911,Sikandrabad,9,11,77.6988,28.4524,0,0,U,M,37266,56164,66239,80906,103822
ARR1104912,Atrauli,9,12,78.2862,28.0303,0,0,U,M,20488,27317,35135,43744,50412
ARR3272912,Barla,9,12,78.3231,27.9104,0,0,R,R,3572,6495,7907,11805,17625
ARR5303912,Chandaus,9,12,77.8483,28.084,0,0,R,R,4370,6828,8125,9444,10977
ARR2731912,ChharraRafatpur,9,12,78.4047,27.9223,0,0,U,TP,6789,12809,13343,20831,21146
ARR3607912,Dado,9,12,78.466,27.9513,0,0,R,R,3572,6495,7907,11202,15870
ARR3696912,Iglas,9,12,77.9416,27.7092,0,0,U,TP,5002,7146,7940,11891,15478
ARR4718912,Kauria-ganj,9,12,78.3141,27.8586,0,0,U,TP,3982,6636,8846,10589,12244
ARR1579912,Khair,9,12,77.8451,27.9409,0,0,U,M,9516,20246,21770,27667,35751
ARR4345912,Majholi,9,12,77.879,27.8314,0,0,U,TP,6190,8718,10619,11318,13210
ARR5039912,Pilkhana,9,12,78.2714,27.8395,0,0,U,TP,3350,5877,7379,9719,11518
ARR3871912,QasimpurPowerHouseColony,9,12,78.1276,28.0496,0,0,U,CT,6690,9695,10314,13752,14748
ARR4171,Satha,9,12,78.1284,27.9798,0,0,R,R,554,879,1152,5053,13747
ARR985912,Sathini,9,12,77.8713,27.6041,0,0,R,R,1541,2234,2280,11285,55855
ARR3597912,Tappal,9,12,77.5769,28.0429,0,0,R,R,7491,10261,11401,13474,15923
ARR2989913,Bisawar,9,13,77.9254,27.3915,0,0,R,R,9510,13985,14861,17181,19263
ARR3947913,Mendu,9,13,78.1118,27.6149,0,0,U,TP,3684,9694,8078,11985,14484
ARR4223913,Mursan,9,13,77.9419,27.5767,0,0,U,TP,3153,7507,9676,11556,13637
ARR5325,Nannur,9,13,78.0826,15.7148,0,0,R,R,3704,5880,6358,7091,10932
ARR2638913,Purdilnagar,9,13,78.3692,27.6571,0,0,U,TP,4311,8290,10305,16146,21885
ARR1253913,Sadabad,9,13,78.0384,27.4379,0,0,U,TP,13912,20938,24357,34578,44453
ARR2405913,Sasni,9,13,78.0823,27.7039,0,0,U,TP,8279,13049,16037,20074,23735
ARR1215913,SikandraRao,9,13,78.3798,27.6876,0,0,U,M,15811,21659,29823,37938,46038
ARR4614914,Anore,9,14,77.4449,27.4726,0,0,R,R,3906,6193,8013,9987,12524
ARR3905914,Aring,9,14,77.5248,27.4827,0,0,R,R,2757,8893,8105,11481,14608
ARR4430914,ArruwaBanger,9,14,77.7698,27.6193,0,0,R,R,3997,7838,9358,11207,12982
ARR4431914,ArruwaBanger,9,14,77.7698,27.6193,0,0,R,R,3997,7838,9358,11207,12982
ARR3924914,Bad,9,14,77.6919,27.4101,0,0,U,CT,606,1044,1356,14718,14559
ARR4992914,Bajna,9,14,77.6778,27.8974,0,0,U,TP,4802,7112,7516,9368,11606
ARR4900914,Baldeo,9,14,77.8226,27.4072,0,0,U,TP,4942,6256,7709,9684,11813
ARR5195914,Barsana,9,14,77.3767,27.6488,0,0,U,TP,1956,6309,7730,9260,11184
ARR4364914,Chaumuhan,9,14,77.5822,27.6227,0,0,U,TP,6371,7585,8935,9851,13173
ARR2438914,Chhata,9,14,77.5092,27.7238,0,0,U,TP,8483,13050,16370,20273,23537
ARR2563914,Govardhan,9,14,77.4642,27.4965,0,0,U,TP,8470,11930,14867,18494,22576
ARR3968914,Hathin,9,14,77.6134,27.7587,0,0,R,R,2913,7470,7863,10916,14421
ARR4125914,Javara,9,14,77.7649,27.6386,0,0,R,R,4668,8048,9926,11757,13862
ARR5196,Kirikera,9,14,77.4902,13.7732,0,0,R,R,4969,6625,6974,9021,11184
ARR907914,KosiKalan,9,14,77.44,27.791,0,0,U,M,12446,27387,34705,50388,60074
ARR2175914,Lohaban,9,14,77.7236,27.5109,0,0,R,R,4715,7940,9526,17531,26006
ARR4198914,Magorra,9,14,77.5607,27.3586,0,0,R,R,5297,7906,9314,11499,13690
ARR4284914,MatMulaBangar,9,14,77.7125,27.6349,0,0,R,R,3898,6148,7358,10371,13421
ARR5040914,Nandgaon,9,14,77.3863,27.7111,0,0,U,TP,4051,6751,8690,9960,11517
ARR4605914,NauhjheelBanger,9,14,77.6488,27.8489,0,0,R,R,4467,7976,8752,11584,12553
ARR4977914,Ol,9,14,77.6242,27.3035,0,0,R,R,4104,6218,7917,9583,11648
ARR4599914,Phalain,9,14,77.4927,27.8026,0,0,R,R,4321,6751,7810,10136,12562
ARR5783914,Radhakund,9,14,77.4901,27.5237,0,0,U,NP,2219,3825,4643,5932,10147
ARR2704914,Raya,9,14,77.7887,27.5556,0,0,U,TP,8705,11764,13447,18032,21344
ARR665914,Vrindavan,9,14,77.6952,27.5803,0,0,U,M,20062,41403,53039,68300,80872
ARR2532915,Achhnera,9,15,77.7568,27.1786,0,0,U,M,10974,15242,18436,20004,22781
ARR4976915,Akodia,9,15,77.8755,27.2377,0,0,U,TP,5013,7596,8347,10421,11652
ARR1315915,Bah,9,15,78.5964,26.867,0,0,U,M,12937,21939,27128,34840,42094
ARR5058915,BamrauliKatara,9,15,78.109,27.1247,0,0,R,R,3268,5446,7314,9280,11489
ARR4850915,Barara,9,15,77.9003,27.1342,0,0,R,R,4166,6127,7817,10217,11918
ARR5141915,Barauli,9,15,78.1899,27.1492,0,0,R,R,5224,8037,8736,10278,11298
ARR5679915,BarauliGujar,9,15,78.1899,27.1492,0,0,R,R,2756,4594,5961,8668,10320
ARR3321915,Barhan,9,15,78.19,27.3312,0,0,R,R,8515,10778,12204,14905,17365
ARR4771915,BeriChahar,9,15,77.907,27.0498,0,0,R,R,4436,7155,8694,10533,12107
ARR5027915,Dharmaram,9,15,77.8646,27.156,0,0,R,CT,5059,6570,6704,10030,11537
ARR2635915,Etmadpur,9,15,78.1961,27.2349,0,0,U,M,5419,11530,12691,19423,21897
ARR1335915,FatehpurSikri,9,15,77.6613,27.0897,0,0,U,M,17445,26810,30521,35411,41659
ARR4330915,Gandai,9,15,77.8051,27.1789,0,0,R,TP,3366,9349,10274,11831,13278
ARR5001915,Jagner,9,15,77.6026,26.8632,0,0,U,TP,3942,7437,8773,9695,11575
ARR4304915,Kagarol,9,15,77.8469,27.0222,0,0,R,R,4573,7750,9634,11426,13366
ARR4305915,Kagarol,9,15,77.8469,27.0222,0,0,R,R,4573,7750,9634,11426,13366
ARR3883,Kavundampalayam,9,15,77.9303,11.3676,0,0,R,R,3941,6869,7700,8591,14711
ARR3665915,Khandauli,9,15,78.0296,27.312,0,0,U,CT,4565,7065,9221,12561,15642
ARR2689915,Kheragarh,9,15,77.8185,26.9448,0,0,U,TP,7261,11904,12939,17905,21470
ARR2009915,Kiraoli,9,15,77.7832,27.1388,0,0,U,TP,5425,15238,17278,22337,28150
ARR5549915,Malpura,9,15,77.9293,27.1249,0,0,R,R,2716,4850,6697,8860,10502
ARR1763915,Pinahat,9,15,78.3788,26.8848,0,0,U,TP,10990,16633,20472,28119,31736
ARR3879915,Poiya,9,15,78.0324,27.2561,0,0,R,R,6076,8680,9137,11552,14732
ARR4782915,Rohta,9,15,78.0062,27.1027,0,0,U,CT,5192,6256,6384,9340,12063
ARR4715915,Saiyan,9,15,77.9422,26.9434,0,0,R,R,5141,6677,8156,10294,12247
ARR4716915,Saiyan,9,15,77.9422,26.9434,0,0,R,R,5141,6677,8156,10294,12247
ARR5036915,Sarenda,9,15,77.7539,26.9779,0,0,R,R,3863,6547,7436,9776,11519
ARR4902,Sarjapura,9,15,77.7864,12.8597,0,0,U,CT,4153,5689,7062,8620,11807
ARR1695915,Shamsabad,9,15,78.1251,27.017,0,0,U,M,11768,19292,19487,27338,33144
ARR5194915,Tehra,9,15,77.9642,26.9982,0,0,R,R,3116,5992,7448,8964,11186
ARR2052,Bachpalle,9,16,78.3993,17.5614,0,0,U,CT,4476,6132,6893,7694,27563
ARR4812916,Chandwar,9,16,78.3872,27.0963,0,0,R,R,2519,6298,6730,9268,12004
ARR3948916,DhirPur,9,16,78.2817,27.1438,0,0,R,R,5489,8193,10497,12656,14478
ARR5470,Gurramkonda,9,16,78.5887,13.7827,0,0,R,R,3610,5554,7405,9453,10642
ARR5328,Jaitpura_Kalan,9,16,78.6929,26.8309,0,0,R,R,3786,4982,5190,7929,10919
ARR5575916,Nepai,9,16,78.4332,27.2004,0,0,R,R,3782,6003,6670,8621,10455
ARR3349916,Nurpur,9,16,78.6516,27.2348,0,0,U,NP,2713,4924,5275,13992,17234
ARR444916,Shikohabad,9,16,78.5876,27.1071,0,0,U,M,45060,63402,68674,95487,115787
ARR1295916,Sirsaganj,9,16,78.6854,27.0577,0,0,U,M,16112,25004,27509,36537,42861
ARR653916,Tundla,9,16,78.2363,27.2122,0,0,U,M,42456,65567,74271,69336,83325
ARR5370917,Amanpur,9,17,78.7385,27.7103,0,0,U,TP,2187,5206,6431,9121,10830
ARR5299917,Awagarh,9,17,78.4837,27.4437,0,0,U,TP,7586,11195,11960,16919,10983
ARR4643917,Bilram,9,17,78.5833,27.8223,0,0,U,TP,5531,8381,9502,12143,12429
ARR1231917,GanjDundwara,9,17,78.9416,27.7315,0,0,U,M,27721,36979,41832,58573,45385
ARR4809917,Jaithara,9,17,79.0185,27.5113,0,0,U,TP,7631,13192,14992,20122,12009
ARR1455917,Jalesar,9,17,78.3041,27.4714,0,0,U,M,21914,30216,31524,39050,38130
ARR532917,Kasganj,9,17,78.6481,27.8073,0,0,U,M,46442,74866,78993,97794,101241
ARR2952917,Marehra,9,17,78.5695,27.7368,0,0,U,M,8179,12983,15033,17777,19542
ARR5166917,NidhauliKalan,9,17,78.4913,27.5735,0,0,U,NP,3401,8772,9720,12607,11261
ARR3982917,Patiyali,9,17,78.9974,27.6891,0,0,U,TP,7420,11985,12834,16713,14366
ARR2378917,Sahawar,9,17,78.8319,27.7948,0,0,U,TP,8646,14173,16328,20470,24067
ARR3643917,Sidhpura,9,17,78.8688,27.6308,0,0,U,TP,6187,8714,9093,12995,15740
ARR2062917,Soron,9,17,78.7456,27.8907,0,0,U,M,8847,22324,23604,29252,27468
ARR2063917,Soron,9,17,78.7456,27.8907,0,0,U,M,8847,22324,23604,29252,27468
ARR2408918,Bewar,9,18,79.2971,27.2189,0,0,U,TP,6505,13275,15994,21058,23729
ARR1828918,Bhogaon,9,18,79.1796,27.2551,0,0,U,TP,8734,14557,19841,26805,30874
ARR3599918,Ghiraur,9,18,78.7941,27.1883,0,0,U,TP,5078,7813,8139,12111,15911
ARR1726918,Karhal,9,18,78.9399,27.001,0,0,U,TP,12057,21693,23004,29372,32559
ARR5240918,Kishni,9,18,79.2617,27.0237,0,0,U,TP,1805,5824,6772,8911,11098
ARR4843918,Kusmara,9,18,79.286,27.1059,0,0,U,TP,3545,5811,7052,9215,11938
ARR2386919,Allapur,9,19,79.2441,27.9127,0,0,U,TP,9235,12650,16292,20722,23985
ARR3181919,Babrala,9,19,78.405,28.2641,0,0,U,TP,5355,9395,9786,14451,18108
ARR1736919,Bilsi,9,19,78.908,28.1265,0,0,U,M,12364,19142,23884,28669,32385
ARR1712919,Bisauli,9,19,78.935,28.3068,0,0,U,M,10521,15248,20290,28398,32780
ARR278919,Budaun,9,19,79.1248,28.0364,0,0,U,M,65492,99091,124279,160106,174241
ARR2157919,Dataganj,9,19,79.406,28.0259,0,0,U,TP,7393,14786,15402,21685,26244
ARR2417919,Gunnaur,9,19,78.4383,28.2388,0,0,U,TP,10092,14626,14774,19108,23665
ARR821919,Sahaswan,9,19,78.7491,28.072,0,0,U,M,36395,48526,51080,58184,66204
ARR5805,Sarawal,9,19,78.9084,27.5779,0,0,R,R,4860,6395,6916,8366,10120
ARR3572919,Shekhupur,9,19,79.1052,28.0079,0,0,R,R,4492,7486,9517,12762,16007
ARR3061919,Sompeta,9,19,79.0568,28.2108,0,0,U,CT,7036,12792,15785,17423,18778
ARR875919,Ujhani,9,19,79.0085,28.0028,0,0,U,M,16218,29487,38995,51051,62039
ARR4313919,Usawan,9,19,79.3474,27.8152,0,0,U,TP,4464,6975,7367,10709,13327
ARR3514919,Usehat,9,19,79.2364,27.7978,0,0,U,TP,3677,5107,6854,12191,16361
ARR989920,Aonla,9,20,79.1595,28.2739,0,0,U,M,16908,26419,34431,45268,55629
ARR3578920,Bisharatganj,9,20,79.2888,28.2914,0,0,U,TP,5137,7235,9693,12988,15975
ARR2260920,Dasua,9,20,79.5696,28.5288,0,0,U,TP,10260,14657,18351,20114,25192
ARR2789920,Deoranian,9,20,79.4764,28.63,0,0,U,TP,28238,68872,82168,17462,20815
ARR2022920,DhauraTanda,9,20,79.4164,28.5821,0,0,U,TP,5490,13505,17582,23902,28057
ARR687920,Faridpur,9,20,79.5387,28.2095,0,0,U,M,13801,37300,39263,61139,78249
ARR4572920,HafizGanj,9,20,79.5791,28.4931,0,0,U,CT,2721,5290,6108,9584,12622
ARR5490920,HaidarganjUrfAliganj,9,20,79.2531,28.3405,0,0,R,R,2902,4534,6041,8651,10599
ARR977920,Kaliaganj,9,20,79.4576,28.3157,0,0,U,TP,25543,37665,39574,49829,56133
ARR3287920,Mirganj,9,20,79.2086,28.5393,0,0,U,TP,4974,6722,9117,13336,17542
ARR3330,Narsala,9,20,79.1619,21.0881,0,0,R,R,3156,4641,4688,5127,17330
ARR974920,Nawabganj,9,20,79.6316,28.541,0,0,U,M,21255,38218,40254,41156,56275
ARR3831920,PipalsanaChaudhari,9,20,79.4481,28.4936,0,0,U,CT,3049,6353,7745,11571,14849
ARR2758920,Richha,9,20,79.5213,28.6938,0,0,U,TP,5993,9989,13039,17508,20977
ARR3360920,Rithora,9,20,79.5055,28.4595,0,0,U,TP,6168,9791,10528,14037,17186
ARR3389920,Shahi,9,20,79.3149,28.5499,0,0,U,TP,5109,8241,9370,13898,16950
ARR3533920,Shergarh,9,20,79.3645,28.6511,0,0,U,TP,5489,7128,9445,12651,16247
ARR1958920,Shishgarh,9,20,79.3133,28.7297,0,0,U,TP,8226,15056,16230,22919,28778
ARR4550,Udayarpalayam_,9,20,79.2935,11.1865,0,0,U,TP,6582,9403,10067,11320,12688
ARR4043921,Amaria,9,21,79.7253,28.7545,0,0,R,R,4394,8344,8546,11336,14140
ARR4828921,Barkhera,9,21,79.8061,28.4524,0,0,U,TP,4577,6935,7005,9903,11964
ARR729921,Bisalpur,9,21,79.8026,28.2925,0,0,U,M,26087,42076,43829,60681,73551
ARR5448,Juvvaladinne,9,21,80.0836,14.7894,0,0,R,R,5870,7430,8490,9464,10675
ARR5156921,Kalinagar,9,21,80.0793,28.6216,0,0,U,TP,4134,7007,8184,9997,11282
ARR3611921,Narayana,9,21,79.9516,28.2429,0,0,U,TP,5723,9700,10778,13472,15863
ARR2359921,NyoriaHusainpur,9,21,79.894,28.7365,0,0,U,TP,8395,14440,16675,21901,24269
ARR709921,Puranpur,9,21,80.1458,28.5137,0,0,U,M,23105,35895,45137,62666,75955
ARR3302921,SherpurKalan,9,21,80.1872,28.5116,0,0,R,R,3170,4529,4923,14645,17456
ARR4071921,Sonadanga,9,21,79.7166,28.6311,0,0,U,TP,1709,2585,2931,12421,14024
ARR2803922,Banda,9,22,80.0976,28.2509,0,0,R,R,4449,6741,8988,14631,20689
ARR2023922,Devanahalli,9,22,80.1008,28.0667,0,0,U,TP,9115,15192,18253,23406,28051
ARR1865922,Kanth,9,22,79.792,27.8099,0,0,U,TP,12690,17531,21440,26330,30106
ARR3197922,Khudaganj,9,22,79.7128,28.1457,0,0,U,TP,5177,9489,11875,14524,18047
ARR3311922,Khutar,9,22,80.2693,28.2039,0,0,U,TP,3925,10329,10988,14220,17423
ARR5795,Kirumampakkam,9,22,79.7949,11.8612,0,0,R,R,2045,3525,3597,7448,10133
ARR2939922,Moth,9,22,79.6871,27.5456,0,0,U,TP,6713,10930,13022,17356,19630
ARR3108922,Nigohi,9,22,79.8681,28.1051,0,0,R,R,5566,7731,8053,10894,18523
ARR3969922,RaphiyaBadKalan,9,22,79.4463,27.7021,0,0,R,R,3393,4648,5108,10588,14419
ARR4065922,ShahbazNagar,9,22,79.884,27.9232,0,0,R,R,3282,6436,8308,10640,14044
ARR804922,Tilhar,9,22,79.7376,27.9616,0,0,U,M,13066,36208,45909,56876,67199
ARR4027923,Barwar,9,23,80.2857,27.833,0,0,U,TP,4950,7280,8993,11808,14196
ARR3827923,Bhurwara,9,23,80.5216,28.0743,0,0,R,R,5347,8913,10354,11477,14867
ARR698923,GolaGokarannath,9,23,80.4666,28.0797,0,0,U,M,28442,42011,45325,63123,77139
ARR699923,GolaGokarannath,9,23,80.4666,28.0797,0,0,U,M,28442,42011,45325,63123,77139
ARR1686923,Kheri,9,23,80.797,27.904,0,0,U,TP,8308,16290,21683,25044,33355
ARR5124923,MaigalGanj,9,23,80.3448,27.7189,0,0,U,CT,1655,5707,5823,8813,11325
ARR4285923,Mailani,9,23,80.3449,28.2872,0,0,U,TP,4178,8527,11084,12791,13416
ARR1242923,Mohammadi,9,23,80.2106,27.9541,0,0,U,M,14430,21863,26721,38451,44968
ARR4028923,Odrahana,9,23,80.783,27.9797,0,0,R,R,2301,3807,5043,9224,14195
ARR4449923,OelDhakwa,9,23,80.7441,27.8421,0,0,U,TP,5082,7473,9462,11079,12958
ARR1348923,PaliaKalan,9,23,80.5799,28.4325,0,0,U,M,12908,19859,26855,35029,41126
ARR2999923,SingahiBhiraura,9,23,80.9019,28.3106,0,0,U,TP,6838,12663,15479,17105,19196
ARR899924,Biswan,9,24,80.9962,27.496,0,0,U,M,16271,28148,38019,51232,60566
ARR2103924,Hargaon,9,24,80.7346,27.7621,0,0,U,TP,11417,16985,17878,22301,26855
ARR5341924,JahgiraBad,9,24,81.1075,27.5201,0,0,R,R,2399,4998,6223,8228,10871
ARR1148924,Khairabad,9,24,80.7534,27.5271,0,0,U,M,17393,22885,29674,38386,48538
ARR5711,Khakharu,9,24,81.1322,25.6111,0,0,R,R,2849,4998,5970,8423,10270
ARR876924,Laharpur,9,24,80.8983,27.7108,0,0,U,M,18995,27135,37051,50092,61990
ARR1101924,Mahmudabad,9,24,81.1233,27.2979,0,0,U,M,21598,31302,32606,41920,50777
ARR2707924,Maholi,9,24,80.4768,27.6524,0,0,U,TP,6405,11862,16013,18411,21331
ARR3135924,MisrikhCumNeemsar,9,24,80.5317,27.4313,0,0,U,M,12200,17941,18689,15365,18388
ARR4103924,Paintepur,9,24,81.1793,27.2788,0,0,U,TP,3487,6705,9176,11181,13917
ARR2280924,Sidhauli,9,24,80.8352,27.283,0,0,U,TP,7922,13659,13797,19539,24976
ARR2169924,TambaurCumAhmadabad,9,24,81.1578,27.7314,0,0,U,TP,2661,10235,14025,19684,26052
ARR5767925,Beniganj,9,25,80.4429,27.2936,0,0,U,TP,2316,5789,7385,9505,10173
ARR1890925,Bilgram,9,25,80.0315,27.1756,0,0,U,M,10555,16239,20738,25292,29768
ARR4939,Chillakallu,9,25,80.1405,16.8958,0,0,R,R,5397,7293,7597,9902,11734
ARR5097925,GausGanj,9,25,80.2883,27.083,0,0,R,R,3451,5392,6596,9383,11384
ARR3661925,KachhaunaPatseni,9,25,80.3427,27.1608,0,0,U,TP,5162,7942,10268,13509,15647
ARR3902925,Madhoganj,9,25,80.1405,27.1175,0,0,U,TP,5589,9162,10322,12258,14615
ARR1522925,Mallawan,9,25,80.148,27.0452,0,0,U,M,9349,20323,26922,31860,36915
ARR1565925,Pihani,9,25,80.2055,27.6205,0,0,U,M,7696,16375,21047,27545,36014
ARR2174925,Sandi,9,25,79.9528,27.2895,0,0,U,M,9387,15140,18955,23234,26007
ARR851925,Sandila,9,25,80.5148,27.0714,0,0,U,M,20796,32451,42347,53113,63670
ARR671925,Shahabad,9,25,79.9449,27.6446,0,0,U,M,11443,24877,25128,67751,80226
ARR5781,Varini,9,25,80.1408,14.6476,0,0,R,R,3713,6293,7935,9385,10153
ARR1263926,Bangarmau,9,26,80.2127,26.8906,0,0,U,M,15855,23664,23903,31871,44204
ARR5150926,Banthar,9,26,80.4698,26.4755,0,0,R,R,4730,6775,7824,9678,11285
ARR5288,Edlapadu,9,26,80.2247,16.1688,0,0,R,R,5193,7114,8519,8892,10996
ARR598926,Gangaghat,9,26,80.3897,26.476,0,0,U,M,35132,49801,52445,74713,90372
ARR4094926,Goindwal,9,26,80.9957,26.3885,0,0,R,R,3999,6259,6647,11180,13951
ARR2133926,KatriPiperKhera,9,26,80.4166,26.4731,0,0,U,CT,3228,6724,7389,17292,26475
ARR2245926,MajharaPiparEhatmali,9,26,80.4312,26.4493,0,0,U,CT,6177,10837,12315,16720,25310
ARR4390926,Maswasi,9,26,80.4382,26.5079,0,0,R,R,5855,8302,9704,11213,13114
ARR3694926,Maurawan,9,26,80.8799,26.4288,0,0,U,TP,8505,10372,12101,14063,15484
ARR3781926,Mohan,9,26,80.6743,26.7807,0,0,U,TP,5076,8322,10816,13547,15071
ARR2340926,Purwa,9,26,80.7734,26.4582,0,0,U,TP,10512,15235,18558,21271,24467
ARR2199926,Safipur,9,26,80.3451,26.7383,0,0,U,TP,6589,13728,16951,22378,25688
ARR5294927,BanthraSikanderPur,9,27,80.8339,26.6926,0,0,R,R,2827,5653,7468,9313,10989
ARR4689927,Jindaur,9,27,80.6123,26.9661,0,0,R,R,3953,6816,8686,9080,12323
ARR2971927,Kakori,9,27,80.7889,26.8688,0,0,U,TP,7356,11145,13016,16860,19403
ARR3235927,Malihabad,9,27,80.7115,26.9223,0,0,U,TP,9322,12947,13666,15808,17818
ARR5463927,Nagram,9,27,81.1408,26.6187,0,0,U,TP,4292,6603,7652,9221,10648
ARR4052927,Sarsawan,9,27,80.9895,26.8087,0,0,U,CT,4459,8808,9371,10310,14082
ARR5672928,ArkhaMustakil,9,28,81.3102,25.8692,0,0,R,R,2271,4938,6544,8410,10337
ARR4616928,Bachhrawan,9,28,81.1127,26.4709,0,0,U,TP,6001,7694,9646,11893,12521
ARR3466928,BelaBhela,9,28,81.2268,26.1343,0,0,R,R,6572,9003,11334,14048,16623
ARR3467928,BelaBhela,9,28,81.2268,26.1343,0,0,R,R,6572,9003,11334,14048,16623
ARR5361928,BhitarGaon,9,28,80.9729,26.2961,0,0,R,R,3780,6407,7817,9813,10841
ARR5258928,Bhojpur,9,28,80.7538,26.1412,0,0,R,R,3941,5796,6300,8320,11055
ARR4770928,Deeh,9,28,81.4099,26.1109,0,0,R,R,3455,4546,5555,10370,12110
ARR2113928,Jais,9,28,81.5475,26.2649,0,0,U,M,12139,15174,20934,24363,26735
ARR5704928,KandRawan,9,28,81.2623,25.888,0,0,R,R,1894,6532,6876,8654,10283
ARR5733928,Khiron,9,28,80.924,26.2868,0,0,R,R,3356,5243,6296,8586,10230
ARR4679928,Korihar,9,28,81.0623,26.2722,0,0,R,R,5141,7789,8405,10339,12351
ARR5498928,Lodhwari,9,28,81.3263,26.1578,0,0,R,R,2389,5555,6831,9219,10592
ARR5499UP1,Lodhwari,9,28,81.3263,26.1578,0,0,R,R,2389,5555,6831,9219,10592
ARR4216928,Nasirabad,9,28,81.5107,26.211,0,0,R,R,4823,8175,8605,9353,13648
ARR4877928,Parsadepur,9,28,81.5042,26.0814,0,0,U,TP,3416,6831,7191,9739,11853
ARR2535928,Salon,9,28,81.4536,26.0286,0,0,U,TP,6800,10834,13705,19418,22775
ARR5590,Shahab_Pur,9,28,81.2468,26.9508,0,0,R,R,3152,6433,6498,8283,10434
ARR2347928,UnchaHarDehat,9,28,81.2919,25.9069,0,0,R,R,9512,13453,14888,22232,24398
ARR3598929,Bahadarpur,9,29,79.6326,27.2601,0,0,U,TP,4275,7802,9676,14644,15917
ARR140929,Farrukhabad-cum-Fatehgarh,9,29,79.5765,27.3914,0,0,U,M,134086,197949,235180,284354,345055
ARR4621929,GanipurJogpur,9,29,79.4199,27.4306,0,0,R,R,3778,6093,7168,9713,12503
ARR4593929,Isagarh,9,29,79.3928,27.5839,0,0,R,TP,6872,11848,12090,10347,12583
ARR830929,Kaimganj,9,29,79.3362,27.5541,0,0,U,M,29999,38708,47313,57221,65282
ARR2316929,Mohammadabad,9,29,79.4334,27.3086,0,0,U,TP,8721,13213,15450,20600,24687
ARR5497,Satai_,9,29,79.6329,24.7224,0,0,U,TP,4921,6151,6686,8295,10592
ARR1767929,Shamsabad,9,29,79.4366,27.5368,0,0,U,TP,13333,16584,21442,26046,31670
ARR5339929,YaqutGanj,9,29,79.6133,27.3272,0,0,R,R,3537,5126,5396,8903,10877
ARR894930,Chhibramau,9,30,79.4997,27.1485,0,0,U,M,20284,33806,35585,50268,60986
ARR5854,Dundwa_Buzurg,9,30,79.7435,27.13,0,0,R,R,3281,6433,7228,8126,10031
ARR1129930,Gursahaiganj,9,30,79.733,27.1168,0,0,U,M,14681,25264,27397,38132,49386
ARR5155930,MajhPurwa,9,30,79.7429,27.1053,0,0,R,R,2735,5259,6808,8677,11284
ARR1777930,Samdhan,9,30,79.7014,27.1363,0,0,U,TP,12062,16753,20941,25327,31479
ARR4968930,Talgram,9,30,79.6503,27.0469,0,0,U,TP,2042,7042,9611,10363,11665
ARR2377930,Tirwaganj,9,30,79.7849,26.9545,0,0,U,TP,8155,12172,15408,20231,24082
ARR3262931,Bakewar,9,31,79.1767,26.6636,0,0,U,TP,5631,11467,12445,15467,17668
ARR1002931,Bharthana,9,31,79.2208,26.7528,0,0,U,M,19731,28971,38071,46439,54769
ARR5134931,Ekdil,9,31,79.0927,26.7446,0,0,U,TP,4399,6982,8342,9965,11310
ARR2006931,Jaswantnagar,9,31,78.9033,26.8826,0,0,U,M,11539,14794,19707,25333,28164
ARR5332931,Lakhna,9,31,79.1471,26.6481,0,0,U,TP,4884,6977,8253,10470,10902
ARR1923932,BabarpurAjitmal,9,32,79.3118,26.5716,0,0,U,TP,8188,13423,18332,24549,29284
ARR1745932,Bidhuna,9,32,79.508,26.8013,0,0,U,TP,11549,18045,19275,24789,32252
ARR1136932,Dibiyapur,9,32,79.5495,26.6329,0,0,U,TP,11027,19884,22678,37756,49036
ARR5598932,Kamalapur,9,32,79.3516,26.5885,0,0,U,NP,1808,3412,3592,10593,10423
ARR3266932,Phaphund,9,32,79.4638,26.6002,0,0,U,TP,6764,11273,12190,15340,17637
ARR5809,Sekarai,9,32,79.5095,10.7344,0,0,R,R,4430,6882,8264,8756,10110
ARR5589933,Amraudha,9,33,79.7811,26.1969,0,0,U,TP,3894,6384,7596,8937,10436
ARR5168933,Baghpur,9,33,80.128,26.5374,0,0,R,R,4596,6636,7210,9282,11256
ARR2831933,Bijawar,9,33,79.9038,26.4851,0,0,U,TP,8644,13720,15770,18414,20513
ARR3166933,Gausganj,9,33,79.9705,26.1667,0,0,U,CT,5566,10233,11323,15352,18192
ARR2382933,Jhinjhak,9,33,79.7344,26.5607,0,0,U,TP,8152,12352,13896,20433,24027
ARR1418933,Pukhrayan,9,33,79.8371,26.2267,0,0,U,M,13860,19426,21568,31324,39105
ARR4366933,Raniyan,9,33,80.0725,26.4023,0,0,U,CT,3573,6743,7783,11337,13167
ARR5433,Sangam,9,33,79.7816,14.5979,0,0,R,R,3192,5504,6404,8846,10698
ARR4239933,Sikindra,9,33,79.6307,26.3677,0,0,U,TP,3990,6541,7813,10878,13580
ARR5112,Arambakkam,9,34,80.0693,13.5427,0,0,R,R,4350,6041,7460,8475,11363
ARR2431934,Bilhaur,9,34,80.0632,26.8419,0,0,U,M,4248,7212,17255,20660,23574
ARR4858934,Binaur,9,34,80.1543,26.3875,0,0,R,R,4764,6352,8410,10349,11894
ARR5140934,Bithoor,9,34,80.2739,26.6137,0,0,U,TP,4423,7134,7444,9652,11300
ARR1362934,Ghatampur,9,34,80.1706,26.1528,0,0,U,M,13672,23573,24884,35638,40623
ARR4601,Nandambakkam,9,34,80.0647,12.9851,0,0,R,R,2626,4040,4750,5454,12560
ARR4003934,Patara,9,34,80.1937,26.2345,0,0,R,R,4244,6845,7205,11807,14303
ARR2970934,SachendiUrfChacheri,9,34,80.1691,26.4259,0,0,R,R,7102,11455,12605,15504,19424
ARR3405934,Sarsaul,9,34,80.4885,26.283,0,0,R,R,1895,2961,3184,14312,16887
ARR4889934,VKalathur,9,34,80.1447,26.6846,0,0,U,NP,4727,7385,9349,10218,11830
ARR4890934,VKalathur,9,34,80.1447,26.6846,0,0,U,TP,4727,7385,9349,10218,11830
ARR4891934,VKalathur,9,34,80.1447,26.6846,0,0,U,TP,4727,7385,9349,10218,11830
ARR4591935,Ait,9,35,79.2411,25.8946,0,0,R,R,4472,6576,7148,10632,12586
ARR3816935,Kadaura,9,35,79.8366,25.9863,0,0,U,TP,5704,7708,10011,12654,14903
ARR1076935,Kalpi,9,35,79.747,26.1234,0,0,U,M,19424,34078,38885,42893,51670
ARR1034935,Konch,9,35,79.1517,25.9937,0,0,U,M,25069,39171,45355,50844,53412
ARR261935,Orai,9,35,79.4541,25.9861,0,0,U,M,68459,93780,98716,139318,187185
ARR1602936,Babina,9,36,78.4588,25.2396,0,0,U,CB,14400,21865,26879,34518,35165
ARR2274936,BaruaSagar,9,36,78.7316,25.3727,0,0,U,M,13500,18000,18783,22090,25028
ARR1905936,Chirgaon,9,36,78.8135,25.5726,0,0,U,M,11366,17560,20787,25174,29624
ARR5382936,Garautha,9,36,79.2989,25.5718,0,0,U,TP,2865,5847,6965,8739,10807
ARR1769936,Gursarai,9,36,79.1783,25.6154,0,0,U,M,8899,16286,19540,25499,31614
ARR2352936,Khailar,9,36,78.5321,25.3414,0,0,U,CT,4337,10315,12187,18358,24333
ARR886936,Mauranipur,9,36,79.1304,25.242,0,0,U,M,27942,41091,43714,50882,61449
ARR4268,Palaganangudy_,9,36,78.8183,10.7199,0,0,U,CT,5001,7694,8099,9210,13469
ARR2392936,Ranipur,9,36,79.0626,25.2501,0,0,U,TP,9167,15793,19279,23439,23932
ARR2577936,Samthar,9,36,78.9069,25.8447,0,0,U,M,9327,14804,16895,20217,22455
ARR5372UP1,Jakhalon,9,37,78.3141,24.5501,0,0,R,R,2516,4838,5967,8135,10828
ARR4210937,Madawra,9,37,78.8003,24.3807,0,0,R,R,3632,5571,6478,10260,13659
ARR3596937,Mahroni,9,37,78.7279,24.5847,0,0,U,TP,5869,8528,8162,13662,15924
ARR4037937,Talbehat,9,37,78.4341,25.0421,0,0,U,TP,5554,9918,10018,12665,14176
ARR1436938,Hamirpur,9,38,80.1482,25.9578,0,0,U,M,21569,26826,28886,34559,38513
ARR1159938,Maudaha,9,38,80.1131,25.6839,0,0,U,M,13801,28315,29700,40269,48145
ARR4044938,Muskera,9,38,79.7986,25.6656,0,0,R,R,4861,9171,10512,13289,14138
ARR836938,Rath,9,38,79.5667,25.5934,0,0,U,M,18202,40448,42696,55950,65056
ARR3927938,Shihori,9,38,79.9894,25.9802,0,0,U,TP,7116,10948,11059,11480,14550
ARR1417938,Sumerpur,9,38,80.1583,25.8258,0,0,U,TP,11315,15715,18354,24661,39132
ARR2047939,Charkhari,9,39,79.7466,25.4029,0,0,U,M,12454,16387,21073,23940,27760
ARR1971939,Kabrai,9,39,79.9993,25.4025,0,0,U,TP,6455,11736,14018,21260,28564
ARR3381939,Kotwa,9,39,79.4718,25.4324,0,0,R,CT,4016,8195,9076,12431,17026
ARR2878939,Kulpahar,9,39,79.6404,25.3184,0,0,U,TP,8481,11014,13814,17442,20096
ARR897940,Atarra,9,40,80.5713,25.285,0,0,U,M,28997,38868,42076,53133,60872
ARR1182940,Baberu,9,40,80.7047,25.5468,0,0,U,TP,14108,25098,27651,39134,47210
ARR4929940,Bahsuma,9,40,80.6193,25.4032,0,0,U,TP,5194,8245,9060,10561,11753
ARR4930940,Bahsuma,9,40,80.6193,25.4032,0,0,U,TP,5194,8245,9060,10561,11753
ARR5509940,Mahokhar,9,40,80.3953,25.5133,0,0,R,R,2001,7145,7606,8493,10578
ARR2797940,Naraini,9,40,80.4759,25.1893,0,0,U,TP,10576,13320,14275,19174,20742
ARR4461940,SadiMadanpur,9,40,80.537,25.7715,0,0,R,R,4328,7346,8051,10507,12916
ARR5234940,Tindwari,9,40,80.5275,25.6172,0,0,U,TP,3967,6399,7523,9543,11113
ARR817941,ChitrakootDham,9,41,80.9127,25.2126,0,0,U,M,23469,37200,41062,54753,66426
ARR3095941,MauMustkil,9,41,81.3731,25.2709,0,0,R,R,4194,9208,10396,14911,18582
ARR4230941,Nimpith,9,41,81.1524,25.3869,0,0,U,CT,5689,7929,8652,12752,13611
ARR5274942,Bahuwa,9,42,80.6228,25.8394,0,0,U,TP,3380,6628,7168,9318,11031
ARR1520942,Bindki,9,42,80.5745,26.0359,0,0,U,M,10391,21647,29484,34200,36926
ARR3288942,Karikan,9,42,81.2346,25.5361,0,0,R,R,5380,11208,11977,15193,17540
ARR1581942,Khaga,9,42,81.1031,25.7748,0,0,U,TP,9531,18607,20640,29845,35637
ARR2148942,KoraJahanabad,9,42,80.3538,26.1054,0,0,U,TP,9758,16264,19150,24200,26359
ARR5816942,Sangaon,9,42,80.7936,25.9733,0,0,R,R,3460,5842,7102,9117,10099
ARR4534942,SKodikulam,9,42,80.7173,25.8828,0,0,U,TP,5796,10539,11581,11988,12713
ARR498943,BelaPratapgarh,9,43,81.9961,25.9165,0,0,U,M,47931,78150,81650,93982,107154
ARR2081943,Kunda,9,43,81.5128,25.7205,0,0,U,TP,10105,14860,16491,22311,27179
ARR3709943,Manikpur,9,43,81.4065,25.7659,0,0,U,TP,7442,11108,11680,13469,15435
ARR5437943,Pariyawan,9,43,81.3686,25.8351,0,0,R,R,6379,7630,7896,9209,10688
ARR5438UP1,Pariyawan,9,43,81.3686,25.8351,0,0,R,R,6379,7630,7896,9209,10688
ARR4276943,Patti,9,43,82.2005,25.9218,0,0,U,TP,4488,7054,8263,10801,13441
ARR3782943,PratapgarhCity,9,43,81.9383,25.8948,0,0,U,TP,4678,8506,9316,12411,15071
ARR1206943,Sabalgarh,9,43,81.7317,25.8377,0,0,R,R,21643,29500,31856,41001,46519
ARR4866943,Shakerdaha,9,43,81.7102,25.6473,0,0,R,R,4349,6691,7709,9343,11876
ARR5822,Vemulapalle__a__Seetayyapalem,9,43,81.9404,16.9661,0,0,R,R,3773,6186,6690,9178,10090
ARR3393944,Ajhuwa,9,44,81.2516,25.6992,0,0,U,TP,6873,11268,11803,14432,16936
ARR2248944,Bharwari,9,44,81.4938,25.5602,0,0,U,TP,19248,37173,40748,21567,25292
ARR3489944,Karari,9,44,81.4262,25.4526,0,0,U,TP,9263,14327,18302,12754,16467
ARR3973944,Kasiya,9,44,81.5429,25.544,0,0,U,CT,3744,6096,7436,11159,14400
ARR5088944,KokhrajUperhar,9,44,81.5031,25.5923,0,0,R,R,3320,6037,7331,8771,11410
ARR2012944,SaraiAquil,9,44,81.5101,25.3782,0,0,U,TP,9603,16396,18972,23288,28148
ARR2013944,SaraiAquil,9,44,81.5101,25.3782,0,0,U,TP,9603,16396,18972,23288,28148
ARR5282944,SaydSarawan,9,44,81.63,25.4878,0,0,R,R,1456,5824,7927,9042,11010
ARR3967944,Sirathu,9,44,81.319,25.643,0,0,U,TP,5791,8643,9088,12203,14423
ARR4740945,ArailUparhar,9,45,81.8818,25.4174,0,0,U,CT,3391,5470,6389,8816,12190
ARR4899945,Barokhar,9,45,81.9429,24.9006,0,0,R,R,2461,4732,6310,8454,11815
ARR3519945,Bharatganj,9,45,82.2752,25.1157,0,0,U,TP,6210,11717,12465,15244,16345
ARR4220945,BihkaUrfPuraMufti,9,45,81.6744,25.4805,0,0,U,CT,3917,6919,8774,10388,13642
ARR1208945,JhusiKohna,9,45,81.9143,25.4259,0,0,U,CT,12898,22784,26174,36888,46354
ARR3190945,Koraon,9,45,82.072,24.9974,0,0,U,TP,5271,8813,9533,14751,18074
ARR3784945,Kotwa,9,45,82.0086,25.3826,0,0,R,R,7527,11494,13742,14441,15065
ARR1999945,LalGopalganjNindaura,9,45,81.6266,25.6369,0,0,U,TP,11915,18331,19296,22992,28288
ARR5524945,MandaKhas,9,45,82.2634,25.098,0,0,R,R,3158,6192,6868,9018,10537
ARR1451945,MauAima,9,45,81.9225,25.6958,0,0,U,TP,13703,17107,19010,32272,38223
ARR3209945,Palej,9,45,82.1899,25.3632,0,0,U,CT,9093,13301,13897,16439,17983
ARR2044945,Phulpur,9,45,82.0875,25.5501,0,0,U,TP,11992,15752,18178,26438,27813
ARR5133,Seepat,9,45,82.2798,22.1513,0,0,R,R,3054,4698,4998,6205,11311
ARR3241945,Shankargarh,9,45,81.6089,25.1748,0,0,U,TP,5873,8899,10662,13102,17785
ARR3042945,Sirsa,9,45,82.0915,25.2636,0,0,U,TP,6473,11709,12593,16177,18939
ARR5474,Soraon,9,45,81.8458,25.608,0,0,R,R,2045,5382,5985,8064,10624
ARR5215945,UparauraUparhar,9,45,82.0519,25.2611,0,0,R,R,3935,5975,7032,8526,11144
ARR5545946,Belhara,9,46,81.2388,27.2477,0,0,R,R,3207,5258,7157,9003,10504
ARR5546UP1,Belhara,9,46,81.2388,27.2477,0,0,R,R,3207,5258,7157,9003,10504
ARR3145946,Dariyabad,9,46,81.5568,26.8879,0,0,U,TP,6478,11997,12628,15667,18338
ARR3657946,Dewa,9,46,81.1668,27.0361,0,0,U,TP,5440,8774,9372,12822,15662
ARR3355946,Haidergarh,9,46,81.365,26.6045,0,0,U,TP,5089,7951,9570,14052,17200
ARR4970946,Karnawal,9,46,81.3214,26.9812,0,0,R,TP,6291,9390,11047,12609,11663
ARR4969946,Karnawal,9,46,81.3214,26.9812,0,0,U,TP,6291,9390,11047,12609,11663
ARR2608946,KasbaIchauli,9,46,81.5735,26.9596,0,0,R,R,8969,13291,15196,18322,22153
ARR4823946,Kursi,9,46,81.0454,27.0632,0,0,R,R,3932,7418,8199,10798,11979
ARR5231946,Mohsand,9,46,81.0493,27.1066,0,0,R,R,4033,7202,7581,9467,11119
ARR289946,Nawabganj,9,46,81.191,26.9272,0,0,U,M,34898,93584,100704,135430,168990
ARR5119946,Rasauli,9,46,81.2605,26.9242,0,0,R,R,4085,6008,7038,9878,11332
ARR3716946,Sadatganj,9,46,81.3726,26.99,0,0,R,R,5267,8520,9691,12385,15390
ARR4772946,Satrikh,9,46,81.1938,26.8597,0,0,U,TP,4386,6645,8025,10132,12107
ARR4159946,Subeha,9,46,81.5128,26.6379,0,0,R,R,4593,6657,8372,10407,13772
ARR5041946,Vaso,9,46,81.375,26.9761,0,0,R,CT,1713,4509,4746,11323,11514
ARR1630946,Zaidpur,9,46,81.329,26.8291,0,0,U,TP,9644,17860,22546,30639,34443
ARR5244947,Bhattiprolu,9,47,82.1207,26.6426,0,0,U,TP,7469,10231,10334,11382,11092
ARR3954947,Bikapur,9,47,82.1323,26.5965,0,0,U,TP,2819,8808,10331,12363,14453
ARR4458947,Gosainganj,9,47,82.3788,26.5743,0,0,U,TP,8264,10733,11180,12590,12931
ARR3091947,JalaluddinNagarUparhar,9,47,82.2678,26.7039,0,0,R,R,6839,10345,11710,15389,18596
ARR3739947,KudhaKeshavpurUparhar,9,47,82.2077,26.7564,0,0,R,R,6091,7685,8686,12497,15264
ARR1291947,Rudauli,9,47,81.7495,26.7485,0,0,U,M,16441,27866,30289,36776,43091
ARR471948,Akbarpur,9,48,82.5379,26.4198,0,0,U,M,28703,47925,53756,51285,111447
ARR3616948,AshrafpurKichhauchha,9,48,82.7594,26.4225,0,0,U,TP,5744,7868,9868,13438,15838
ARR5841948,Baskhari,9,48,82.7727,26.4536,0,0,R,R,3598,5898,6991,8851,10053
ARR2578948,Hiswar,9,48,82.8237,26.5104,0,0,R,R,7059,11984,14775,19456,22451
ARR1442948,Jalalpur,9,48,82.7386,26.3133,0,0,U,M,17237,26052,27988,34216,38348
ARR3980948,LalganjurfBadh,9,48,82.5551,26.6056,0,0,U,TP,4364,6714,7460,11348,14370
ARR3755948,Lormi,9,48,82.7638,26.2984,0,0,R,TP,6077,9962,10377,12156,15156
ARR5756,Mahso_Khas,9,48,82.7788,26.7339,0,0,R,R,3884,5629,6451,8108,10190
ARR3934948,PratappurChmurkha,9,48,82.4424,26.482,0,0,R,R,5595,8477,9949,11741,14524
ARR534948,Tanda,9,48,82.6619,26.5522,0,0,U,M,37090,67799,73848,88128,101108
ARR1090948,Tanda,9,48,82.6619,26.5522,0,0,U,M,40020,67782,72488,42581,51158
ARR4130949,Amethi,9,49,81.8066,26.1563,0,0,U,TP,4382,7688,10661,12836,13849
ARR4252949,Amethi,9,49,81.8066,26.1563,0,0,U,TP,4305,7688,9331,11360,13530
ARR2333949,Doboka,9,49,81.6188,26.4575,0,0,R,R,8256,15184,16229,20578,24509
ARR4078949,Dostpur,9,49,82.4693,26.2728,0,0,U,TP,6330,8916,9889,11864,14011
ARR5360949,JangalRamnagar,9,49,81.7858,26.1792,0,0,R,R,4015,5655,6960,8713,10843
ARR5688949,Kadipur,9,49,82.3713,26.1674,0,0,U,TP,2451,3865,4460,9369,10303
ARR2334949,Kathaura,9,49,81.5512,26.493,0,0,U,CT,9851,12840,14410,23327,24489
ARR2243949,Kudwar,9,49,81.9785,26.3467,0,0,R,R,10780,16045,18090,21726,25339
ARR5514949,Mayang,9,49,82.0297,26.4228,0,0,R,R,4570,7777,9330,9936,10567
ARR4688949,Musafirkhana,9,49,81.7961,26.3779,0,0,U,TP,3754,7089,8443,10651,12324
ARR410949,Sultanpur,9,49,82.0741,26.2584,0,0,U,M,38225,72263,84484,112356,125408
ARR5157950,AinyHatinsi,9,50,81.5465,27.2505,0,0,R,R,2505,4568,5350,7587,11281
ARR2986950,Jarwal,9,50,81.5393,27.1646,0,0,U,TP,4310,8620,11741,15780,19289
ARR3494950,Kewalpur,9,50,81.5969,28.0116,0,0,U,CT,4254,6753,7939,11088,16445
ARR1542950,MihiPurwa,9,50,81.3684,28.0379,0,0,R,R,12527,20250,22099,27512,36528
